[
  {
    "name": "菩提树小区营销中心",
    "Address": "海秀街道西海岸长天路7号",
    "type": "公司企业",
    "lng": "110.251",
    "lat": "20.0224",
    "district": "秀英区"
  },
  {
    "name": "GRC康鑫公司",
    "Address": "城市建设投资公司向西300米",
    "type": "公司企业",
    "lng": "110.255",
    "lat": "19.9558",
    "district": "秀英区"
  },
  {
    "name": "海宇水泥制品厂",
    "Address": "海秀镇海榆中线5-2公里处(俊龙气车服务站旁)",
    "type": "公司企业",
    "lng": "110.278",
    "lat": "19.9749",
    "district": "秀英区"
  },
  {
    "name": "八一总场",
    "Address": "滨海街道丘海大道126号华信物流城C69号万通华信物流有限公司",
    "type": "公司企业",
    "lng": "110.301",
    "lat": "19.9918",
    "district": "秀英区"
  },
  {
    "name": "贵鑫商旅有限公司",
    "Address": "金鼎路24号",
    "type": "公司企业",
    "lng": "110.293",
    "lat": "20.018",
    "district": "秀英区"
  },
  {
    "name": "新海娱乐中心",
    "Address": "西秀镇新海村海口新海学校附近",
    "type": "体育休闲服务",
    "lng": "110.17",
    "lat": "20.0572",
    "district": "秀英区"
  },
  {
    "name": "乾兰美食店",
    "Address": "绿色长廊",
    "type": "餐饮服务",
    "lng": "110.234",
    "lat": "19.9337",
    "district": "秀英区"
  },
  {
    "name": "郑州栗子王强丽老字号",
    "Address": "龙华路省人民医院门诊部对面公交车站台旁",
    "type": "餐饮服务",
    "lng": "110.293",
    "lat": "20.0087",
    "district": "秀英区"
  },
  {
    "name": "家得乐美食店",
    "Address": "秀英大道秀华路十四中对面金海大厦旁",
    "type": "餐饮服务",
    "lng": "110.291",
    "lat": "20.0139",
    "district": "秀英区"
  },
  {
    "name": "乐其蛋糕店",
    "Address": "秀英大道秀华路秀英影剧院以东20米",
    "type": "餐饮服务",
    "lng": "110.291",
    "lat": "20.0137",
    "district": "秀英区"
  },
  {
    "name": "味德基汉堡奶茶咖啡小吃",
    "Address": "秀英大道11号",
    "type": "餐饮服务",
    "lng": "110.288",
    "lat": "20.0164",
    "district": "秀英区"
  },
  {
    "name": "旺泰竹里野菌馆",
    "Address": "美华路人民医院旁",
    "type": "餐饮服务",
    "lng": "110.299",
    "lat": "20.0115",
    "district": "秀英区"
  },
  {
    "name": "刘刘佳货店",
    "Address": "港澳开发区金美花园1号楼2号铺面",
    "type": "购物服务",
    "lng": "110.271",
    "lat": "20.0097",
    "district": "秀英区"
  },
  {
    "name": "盛顺发商行",
    "Address": "海玻路20",
    "type": "购物服务",
    "lng": "110.285",
    "lat": "20.0113",
    "district": "秀英区"
  },
  {
    "name": "罗牛山超市",
    "Address": "长信路10号",
    "type": "购物服务",
    "lng": "110.253",
    "lat": "20.0305",
    "district": "秀英区"
  },
  {
    "name": "顺继发手机店",
    "Address": "秀英大道东海秀信用社旁",
    "type": "购物服务",
    "lng": "110.289",
    "lat": "20.0247",
    "district": "秀英区"
  },
  {
    "name": "琼高商行",
    "Address": "长康路南150米",
    "type": "购物服务",
    "lng": "110.208",
    "lat": "20.0116",
    "district": "秀英区"
  },
  {
    "name": "迈力古特店",
    "Address": "长流镇长生路94号",
    "type": "购物服务",
    "lng": "110.209",
    "lat": "20.0178",
    "district": "秀英区"
  },
  {
    "name": "乐维电脑(长新路)",
    "Address": "长新路61号附近",
    "type": "购物服务",
    "lng": "110.207",
    "lat": "20.018",
    "district": "秀英区"
  },
  {
    "name": "旺鼎兴批发部",
    "Address": "海秀镇丘海大道水头村轩宇宾馆旁",
    "type": "购物服务",
    "lng": "110.302",
    "lat": "19.9923",
    "district": "秀英区"
  },
  {
    "name": "翔隆百货商行",
    "Address": "丘海大道水头村金海宾馆旁",
    "type": "购物服务",
    "lng": "110.302",
    "lat": "19.9923",
    "district": "秀英区"
  },
  {
    "name": "海口秀英新兴发商行",
    "Address": "秀英大道秀新路35-12号",
    "type": "购物服务",
    "lng": "110.289",
    "lat": "20.0095",
    "district": "秀英区"
  },
  {
    "name": "吉祥电动车维修店",
    "Address": "金福路新村",
    "type": "生活服务",
    "lng": "110.291",
    "lat": "19.9998",
    "district": "秀英区"
  },
  {
    "name": "海口安利达物流",
    "Address": "丘浚路与丘海大道交叉口西北200米",
    "type": "生活服务",
    "lng": "110.3",
    "lat": "19.9972",
    "district": "秀英区"
  },
  {
    "name": "管家中心",
    "Address": "西海岸长怡路29号紫园B区",
    "type": "生活服务",
    "lng": "110.258",
    "lat": "20.018",
    "district": "秀英区"
  },
  {
    "name": "海峡南岸温泉花园",
    "Address": "西海岸盈滨半岛滨海大道西延线18公里",
    "type": "商务住宅",
    "lng": "110.15",
    "lat": "20.0126",
    "district": "秀英区"
  },
  {
    "name": "海港宿舍1幢",
    "Address": "海港路8号附近",
    "type": "商务住宅",
    "lng": "110.288",
    "lat": "20.0257",
    "district": "秀英区"
  },
  {
    "name": "新天地停车场",
    "Address": "224国道西200米",
    "type": "交通设施服务",
    "lng": "110.272",
    "lat": "19.8989",
    "district": "秀英区"
  },
  {
    "name": "东风本田汽车海南同鑫特约销售服务店停车场",
    "Address": "南海大道135号",
    "type": "交通设施服务",
    "lng": "110.298",
    "lat": "20.0025",
    "district": "秀英区"
  },
  {
    "name": "金方圆广告传媒有限公司",
    "Address": "海秀西路173号禧天宾馆三楼",
    "type": "科教文化服务",
    "lng": "110.293",
    "lat": "20.0199",
    "district": "秀英区"
  },
  {
    "name": "华泰幼儿园",
    "Address": "秀英街道海玻路",
    "type": "科教文化服务",
    "lng": "110.29",
    "lat": "19.9916",
    "district": "秀英区"
  },
  {
    "name": "海南省人民医院",
    "Address": "秀华路19号",
    "type": "医疗保健服务",
    "lng": "110.294",
    "lat": "20.0111",
    "district": "秀英区"
  },
  {
    "name": "中共永兴镇纪律检查委员会",
    "Address": "永兴镇",
    "type": "政府机构及社会团体",
    "lng": "110.274",
    "lat": "19.8983",
    "district": "秀英区"
  },
  {
    "name": "海口市海秀供销合作社",
    "Address": "秀英街道秀华路66号",
    "type": "政府机构及社会团体",
    "lng": "110.289",
    "lat": "20.0137",
    "district": "秀英区"
  },
  {
    "name": "海口市秀英区商务局",
    "Address": "秀华路2号",
    "type": "政府机构及社会团体",
    "lng": "110.3",
    "lat": "20.0138",
    "district": "秀英区"
  },
  {
    "name": "秀英区司法局海秀街道司法所",
    "Address": "金鼎路中段",
    "type": "政府机构及社会团体",
    "lng": "110.294",
    "lat": "20.0171",
    "district": "秀英区"
  },
  {
    "name": "建宏环保砖厂(永桂路)",
    "Address": "永桂路西50米",
    "type": "公司企业",
    "lng": "110.218",
    "lat": "20.0114",
    "district": "秀英区"
  },
  {
    "name": "海南蛛王药业有限公司",
    "Address": "海秀镇富康路13号",
    "type": "公司企业",
    "lng": "110.293",
    "lat": "19.9925",
    "district": "秀英区"
  },
  {
    "name": "海南博信钢结构造业有限公司",
    "Address": "丘海大道富康路3号",
    "type": "公司企业",
    "lng": "110.295",
    "lat": "19.9932",
    "district": "秀英区"
  },
  {
    "name": "满嘴香烤鱼阁",
    "Address": "西秀镇海岸赛拉维内",
    "type": "餐饮服务",
    "lng": "110.195",
    "lat": "20.0563",
    "district": "秀英区"
  },
  {
    "name": "正宗屯昌猪骨汤",
    "Address": "海秀镇金福路与富康路交叉路口",
    "type": "餐饮服务",
    "lng": "110.291",
    "lat": "19.9928",
    "district": "秀英区"
  },
  {
    "name": "翔荣贸易",
    "Address": "海秀镇富康路扶贫开发区9号仓库",
    "type": "餐饮服务",
    "lng": "110.288",
    "lat": "19.9936",
    "district": "秀英区"
  },
  {
    "name": "回味居石锅鱼",
    "Address": "金福路陈琳口腔诊所对面",
    "type": "餐饮服务",
    "lng": "110.291",
    "lat": "19.9995",
    "district": "秀英区"
  },
  {
    "name": "重庆面馆",
    "Address": "南海大道192号附近",
    "type": "餐饮服务",
    "lng": "110.288",
    "lat": "20.0008",
    "district": "秀英区"
  },
  {
    "name": "蜜菓の蜜制鲜饮(秀英店)",
    "Address": "秀英大道55-2号豪兴商业广场一楼",
    "type": "餐饮服务",
    "lng": "110.287",
    "lat": "20.0035",
    "district": "秀英区"
  },
  {
    "name": "晶威饮吧",
    "Address": "秀英大道18-6号",
    "type": "餐饮服务",
    "lng": "110.286",
    "lat": "20.0115",
    "district": "秀英区"
  },
  {
    "name": "福连茶饭店",
    "Address": "长生路158号",
    "type": "餐饮服务",
    "lng": "110.206",
    "lat": "20.0176",
    "district": "秀英区"
  },
  {
    "name": "草原情碳烤羊排羊腿",
    "Address": "美华路夜市一条街16号商铺",
    "type": "餐饮服务",
    "lng": "110.298",
    "lat": "20.0115",
    "district": "秀英区"
  },
  {
    "name": "童话森林星巴克",
    "Address": "滨海大道96号居然之家2楼",
    "type": "餐饮服务",
    "lng": "110.29",
    "lat": "20.0261",
    "district": "秀英区"
  },
  {
    "name": "休闲小站",
    "Address": "秀华路10号",
    "type": "餐饮服务",
    "lng": "110.298",
    "lat": "20.0129",
    "district": "秀英区"
  },
  {
    "name": "敏顺五金店",
    "Address": "海榆中线万达广场3号门对面",
    "type": "购物服务",
    "lng": "110.286",
    "lat": "19.9857",
    "district": "秀英区"
  },
  {
    "name": "华祥贸易商行",
    "Address": "海榆中线30号粮食批发市场",
    "type": "购物服务",
    "lng": "110.286",
    "lat": "19.9976",
    "district": "秀英区"
  },
  {
    "name": "华强帆布厂(南海大道)",
    "Address": "G224(海榆(中)线)",
    "type": "购物服务",
    "lng": "110.286",
    "lat": "20.0014",
    "district": "秀英区"
  },
  {
    "name": "伊利牛奶仓库",
    "Address": "秀英街道海商路6号",
    "type": "购物服务",
    "lng": "110.284",
    "lat": "20.0142",
    "district": "秀英区"
  },
  {
    "name": "多乐士",
    "Address": "长新路与225国道交叉口西南50米",
    "type": "购物服务",
    "lng": "110.207",
    "lat": "20.0173",
    "district": "秀英区"
  },
  {
    "name": "长福副食店",
    "Address": "长流一号路与225国道交叉口西150米",
    "type": "购物服务",
    "lng": "110.214",
    "lat": "20.0175",
    "district": "秀英区"
  },
  {
    "name": "昆仑润滑油",
    "Address": "富康路2附近",
    "type": "购物服务",
    "lng": "110.296",
    "lat": "19.9936",
    "district": "秀英区"
  },
  {
    "name": "海口华康宾馆",
    "Address": "秀英街道秀华路5巷15号",
    "type": "住宿服务",
    "lng": "110.292",
    "lat": "20.0132",
    "district": "秀英区"
  },
  {
    "name": "东东日记",
    "Address": "秀华路48号金海大厦一楼",
    "type": "购物服务",
    "lng": "110.292",
    "lat": "20.014",
    "district": "秀英区"
  },
  {
    "name": "海口海港德兴五金店",
    "Address": "港航路与滨海大道交叉口南50米",
    "type": "购物服务",
    "lng": "110.295",
    "lat": "20.0251",
    "district": "秀英区"
  },
  {
    "name": "海口宾之家客房",
    "Address": "海秀西路158号(海口西站旁2米)",
    "type": "住宿服务",
    "lng": "110.295",
    "lat": "20.0189",
    "district": "秀英区"
  },
  {
    "name": "千雀全自动麻将机",
    "Address": "秀华路与美华路交叉口西南150米",
    "type": "购物服务",
    "lng": "110.298",
    "lat": "20.0128",
    "district": "秀英区"
  },
  {
    "name": "名设计专业发屋",
    "Address": "长流农贸市场对面",
    "type": "生活服务",
    "lng": "110.208",
    "lat": "20.0151",
    "district": "秀英区"
  },
  {
    "name": "中国体育彩票",
    "Address": "秀新路60号附近",
    "type": "生活服务",
    "lng": "110.291",
    "lat": "20.0127",
    "district": "秀英区"
  },
  {
    "name": "御名臣美容美发连锁",
    "Address": "秀华路98号二楼",
    "type": "生活服务",
    "lng": "110.291",
    "lat": "20.0136",
    "district": "秀英区"
  },
  {
    "name": "中国体育彩票",
    "Address": "金鼎路西50米",
    "type": "生活服务",
    "lng": "110.293",
    "lat": "20.0157",
    "district": "秀英区"
  },
  {
    "name": "品味轩·足源康养生会馆",
    "Address": "秀华路水云天1号二楼",
    "type": "生活服务",
    "lng": "110.3",
    "lat": "20.0129",
    "district": "秀英区"
  },
  {
    "name": "尚流美发",
    "Address": "长流镇长康路海口市长流中心卫生院",
    "type": "生活服务",
    "lng": "110.208",
    "lat": "20.0161",
    "district": "秀英区"
  },
  {
    "name": "中国体育彩票",
    "Address": "兴海路与科技大道交叉口东200米",
    "type": "生活服务",
    "lng": "110.27",
    "lat": "20.0097",
    "district": "秀英区"
  },
  {
    "name": "黑仔时尚理发店",
    "Address": "海港路185号附近",
    "type": "生活服务",
    "lng": "110.289",
    "lat": "20.0235",
    "district": "秀英区"
  },
  {
    "name": "景园悦海湾",
    "Address": "225国道西200米",
    "type": "商务住宅",
    "lng": "110.152",
    "lat": "19.9944",
    "district": "秀英区"
  },
  {
    "name": "水云天1期",
    "Address": "丘海大道56号",
    "type": "商务住宅",
    "lng": "110.299",
    "lat": "20.0119",
    "district": "秀英区"
  },
  {
    "name": "金湾花园(金鼎路)",
    "Address": "海秀路160号金鼎路",
    "type": "商务住宅",
    "lng": "110.294",
    "lat": "20.0161",
    "district": "秀英区"
  },
  {
    "name": "假日海滩旅游区停车场",
    "Address": "滨海大道219号",
    "type": "交通设施服务",
    "lng": "110.238",
    "lat": "20.0397",
    "district": "秀英区"
  },
  {
    "name": "海岸豪庭停车场",
    "Address": "海盛路88号海岸豪庭",
    "type": "交通设施服务",
    "lng": "110.264",
    "lat": "20.0173",
    "district": "秀英区"
  },
  {
    "name": "莱昔营养运动机构",
    "Address": "海港路10号边防迎宾馆",
    "type": "医疗保健服务",
    "lng": "110.288",
    "lat": "20.0256",
    "district": "秀英区"
  },
  {
    "name": "秀英地税分局办税服务厅",
    "Address": "美俗路13号",
    "type": "政府机构及社会团体",
    "lng": "110.293",
    "lat": "20.0073",
    "district": "秀英区"
  },
  {
    "name": "爱华社区居委会",
    "Address": "海秀街道丘海一横路16号华洋公寓A栋",
    "type": "政府机构及社会团体",
    "lng": "110.294",
    "lat": "20.0218",
    "district": "秀英区"
  },
  {
    "name": "文峰石场",
    "Address": "石山镇",
    "type": "公司企业",
    "lng": "110.186",
    "lat": "19.9668",
    "district": "秀英区"
  },
  {
    "name": "海口美伦食品有限公司",
    "Address": "海港路21号",
    "type": "公司企业",
    "lng": "110.288",
    "lat": "20.0219",
    "district": "秀英区"
  },
  {
    "name": "布拉格休闲驿站",
    "Address": "长生路128号",
    "type": "餐饮服务",
    "lng": "110.209",
    "lat": "20.0178",
    "district": "秀英区"
  },
  {
    "name": "草帽石锅鱼",
    "Address": "海秀镇万达广场3061",
    "type": "餐饮服务",
    "lng": "110.286",
    "lat": "19.9857",
    "district": "秀英区"
  },
  {
    "name": "驴肉火烧饭店",
    "Address": "秀英街道永万路高新花园S5栋",
    "type": "餐饮服务",
    "lng": "110.272",
    "lat": "20.0046",
    "district": "秀英区"
  },
  {
    "name": "王爵台球休闲吧",
    "Address": "秀华路宝睿华秀英商场三层",
    "type": "体育休闲服务",
    "lng": "110.288",
    "lat": "20.014",
    "district": "秀英区"
  },
  {
    "name": "吸饮力港式文化水吧",
    "Address": "长康路25号",
    "type": "餐饮服务",
    "lng": "110.208",
    "lat": "20.0157",
    "district": "秀英区"
  },
  {
    "name": "0899啤酒广场",
    "Address": "金鼎路与秀华路交汇处",
    "type": "餐饮服务",
    "lng": "110.293",
    "lat": "20.0142",
    "district": "秀英区"
  },
  {
    "name": "舞迷俱乐部",
    "Address": "海秀大道189号",
    "type": "体育休闲服务",
    "lng": "110.289",
    "lat": "20.0206",
    "district": "秀英区"
  },
  {
    "name": "茶言休闲吧",
    "Address": "东方洋路10号",
    "type": "餐饮服务",
    "lng": "110.298",
    "lat": "20.0231",
    "district": "秀英区"
  },
  {
    "name": "五金橡塑制品",
    "Address": "石材六路东150米",
    "type": "购物服务",
    "lng": "110.294",
    "lat": "19.9597",
    "district": "秀英区"
  },
  {
    "name": "亿嘉商行",
    "Address": "海秀镇儒益村132号",
    "type": "购物服务",
    "lng": "110.286",
    "lat": "19.983",
    "district": "秀英区"
  },
  {
    "name": "腾盛门厂",
    "Address": "金鹿工业园小舅超市右拐",
    "type": "购物服务",
    "lng": "110.282",
    "lat": "19.9551",
    "district": "秀英区"
  },
  {
    "name": "诚麟五金(海榆店)",
    "Address": "224国道东50米",
    "type": "购物服务",
    "lng": "110.286",
    "lat": "19.9992",
    "district": "秀英区"
  },
  {
    "name": "圆梦大酒店",
    "Address": "白水塘路17号",
    "type": "住宿服务",
    "lng": "110.293",
    "lat": "19.9883",
    "district": "秀英区"
  },
  {
    "name": "宏源防水(海南总经销)",
    "Address": "秀英大道阳光街城18号铺面",
    "type": "购物服务",
    "lng": "110.287",
    "lat": "20.0069",
    "district": "秀英区"
  },
  {
    "name": "彬彬文具(秀新路)",
    "Address": "秀英大道26号",
    "type": "购物服务",
    "lng": "110.287",
    "lat": "20.0095",
    "district": "秀英区"
  },
  {
    "name": "消防器材阀门",
    "Address": "海盛路9号附近",
    "type": "购物服务",
    "lng": "110.284",
    "lat": "20.0192",
    "district": "秀英区"
  },
  {
    "name": "优质水生活体验馆",
    "Address": "海港路与滨海大道交叉口南50米",
    "type": "购物服务",
    "lng": "110.288",
    "lat": "20.0258",
    "district": "秀英区"
  },
  {
    "name": "品格吊顶店",
    "Address": "海秀街道滨海大道102号居然之家二期三楼",
    "type": "购物服务",
    "lng": "110.29",
    "lat": "20.027",
    "district": "秀英区"
  },
  {
    "name": "群旺特产店",
    "Address": "站前北路北50米",
    "type": "购物服务",
    "lng": "110.17",
    "lat": "20.0345",
    "district": "秀英区"
  },
  {
    "name": "红玫瑰商务出租房",
    "Address": "美俗路19号附近",
    "type": "住宿服务",
    "lng": "110.292",
    "lat": "20.0075",
    "district": "秀英区"
  },
  {
    "name": "友缘来便利店",
    "Address": "美俗路美泰街玉兰园小区",
    "type": "购物服务",
    "lng": "110.294",
    "lat": "20.0063",
    "district": "秀英区"
  },
  {
    "name": "海口楠京旅租(六分店)",
    "Address": "秀华路与金鼎路交叉口北150米",
    "type": "住宿服务",
    "lng": "110.292",
    "lat": "20.0147",
    "district": "秀英区"
  },
  {
    "name": "舒婷旅馆",
    "Address": "秀英街道秀英工业总公司住宅小区",
    "type": "住宿服务",
    "lng": "110.292",
    "lat": "20.0141",
    "district": "秀英区"
  },
  {
    "name": "天筑广告",
    "Address": "长流镇长滨路永桂村424号",
    "type": "生活服务",
    "lng": "110.214",
    "lat": "20.0068",
    "district": "秀英区"
  },
  {
    "name": "8号造型(秀新路)",
    "Address": "秀新路2号海岛.阳光一期小区西侧109铺面",
    "type": "生活服务",
    "lng": "110.29",
    "lat": "20.0096",
    "district": "秀英区"
  },
  {
    "name": "阿娃理发",
    "Address": "海秀街道金鼎路8号",
    "type": "生活服务",
    "lng": "110.293",
    "lat": "20.0157",
    "district": "秀英区"
  },
  {
    "name": "蜀海盲人按摩",
    "Address": "书场街2号",
    "type": "生活服务",
    "lng": "110.286",
    "lat": "20.0183",
    "district": "秀英区"
  },
  {
    "name": "海汽港口汽车客运站售票厅",
    "Address": "滨海大道96号",
    "type": "生活服务",
    "lng": "110.293",
    "lat": "20.0255",
    "district": "秀英区"
  },
  {
    "name": "中国人寿保险股份有限公司海口市东山镇营销服务部",
    "Address": "琼东路与解放后街交叉口东北50米",
    "type": "金融保险服务",
    "lng": "110.248",
    "lat": "19.7558",
    "district": "秀英区"
  },
  {
    "name": "中线八公里(公交站)",
    "Address": "24路;64路",
    "type": "交通设施服务",
    "lng": "110.272",
    "lat": "19.953",
    "district": "秀英区"
  },
  {
    "name": "停车场",
    "Address": "九号路与永万路交叉口东北150米",
    "type": "交通设施服务",
    "lng": "110.274",
    "lat": "20.0006",
    "district": "秀英区"
  },
  {
    "name": "长丰卫生服务室",
    "Address": "225国道北50米",
    "type": "医疗保健服务",
    "lng": "110.217",
    "lat": "20.0175",
    "district": "秀英区"
  },
  {
    "name": "中共长流镇长丰村总支部委员会",
    "Address": "[]",
    "type": "政府机构及社会团体",
    "lng": "110.219",
    "lat": "20.0193",
    "district": "秀英区"
  },
  {
    "name": "海口市公共安全联动指挥中心",
    "Address": "长滨东三街2",
    "type": "政府机构及社会团体",
    "lng": "110.211",
    "lat": "20.0527",
    "district": "秀英区"
  },
  {
    "name": "兴华水泥制品厂(海秀快速路)",
    "Address": "海盛路168号",
    "type": "公司企业",
    "lng": "110.247",
    "lat": "20.0155",
    "district": "秀英区"
  },
  {
    "name": "广州柴油机厂股份有限公司",
    "Address": "长怡路城市海岸南区商业西段135/136号",
    "type": "公司企业",
    "lng": "110.255",
    "lat": "20.0214",
    "district": "秀英区"
  },
  {
    "name": "海南鑫心可实业有限公司",
    "Address": "国家高新区狮子岭工业园火炬路5号",
    "type": "公司企业",
    "lng": "110.273",
    "lat": "19.944",
    "district": "秀英区"
  },
  {
    "name": "海南大鉴联合海洋资源开发有限公司",
    "Address": "秀英街道秀华路21号",
    "type": "公司企业",
    "lng": "110.292",
    "lat": "20.0134",
    "district": "秀英区"
  },
  {
    "name": "海口珊妮多美丽服饰有限公司",
    "Address": "港澳开发区兴旺路1号婷美产研大楼6楼",
    "type": "公司企业",
    "lng": "110.266",
    "lat": "20.0114",
    "district": "秀英区"
  },
  {
    "name": "永昌兔肉园",
    "Address": "224国道附近",
    "type": "餐饮服务",
    "lng": "110.275",
    "lat": "19.8856",
    "district": "秀英区"
  },
  {
    "name": "沙县小吃(文博府二朝南)",
    "Address": "富康路与金福路交叉口南150米",
    "type": "餐饮服务",
    "lng": "110.291",
    "lat": "19.9921",
    "district": "秀英区"
  },
  {
    "name": "大众大排档",
    "Address": "美俗路",
    "type": "餐饮服务",
    "lng": "110.293",
    "lat": "20.0075",
    "district": "秀英区"
  },
  {
    "name": "鑫湘源美食",
    "Address": "粤海大道海口火车站",
    "type": "餐饮服务",
    "lng": "110.171",
    "lat": "20.032",
    "district": "秀英区"
  },
  {
    "name": "保利商行(解放路)",
    "Address": "东山镇解放路",
    "type": "购物服务",
    "lng": "110.246",
    "lat": "19.7555",
    "district": "秀英区"
  },
  {
    "name": "易捷便利店",
    "Address": "石山镇风景路火山口国家地质公园(东南门)附近",
    "type": "购物服务",
    "lng": "110.267",
    "lat": "19.9424",
    "district": "秀英区"
  },
  {
    "name": "林氏木业O2O家具体验馆(海口店)",
    "Address": "海榆中线29号秀英万达广场2楼",
    "type": "购物服务",
    "lng": "110.285",
    "lat": "19.9862",
    "district": "秀英区"
  },
  {
    "name": "婴之坊母婴用品店",
    "Address": "224国道西150米",
    "type": "购物服务",
    "lng": "110.284",
    "lat": "19.99",
    "district": "秀英区"
  },
  {
    "name": "向港副食商店",
    "Address": "秀英街道科技大道向荣村145号",
    "type": "购物服务",
    "lng": "110.27",
    "lat": "20.007",
    "district": "秀英区"
  },
  {
    "name": "高氏蓄电池总汇",
    "Address": "富康路81号附近",
    "type": "购物服务",
    "lng": "110.289",
    "lat": "19.9935",
    "district": "秀英区"
  },
  {
    "name": "腾达门窗装饰(秀英分店)",
    "Address": "海秀镇金福路13-33号",
    "type": "购物服务",
    "lng": "110.291",
    "lat": "19.9919",
    "district": "秀英区"
  },
  {
    "name": "SUPERMAKET",
    "Address": "和谐路与紫园路交叉口北150米",
    "type": "购物服务",
    "lng": "110.258",
    "lat": "20.0199",
    "district": "秀英区"
  },
  {
    "name": "海南港航控股有限公司新员工招待所",
    "Address": "海港路20号海南港航控股有限公司",
    "type": "住宿服务",
    "lng": "110.289",
    "lat": "20.0269",
    "district": "秀英区"
  },
  {
    "name": "浩翔茶烟酒行",
    "Address": "滨海东路118号",
    "type": "购物服务",
    "lng": "110.29",
    "lat": "20.0263",
    "district": "秀英区"
  },
  {
    "name": "凯莱亚门窗",
    "Address": "滨海大道居然之家四楼",
    "type": "购物服务",
    "lng": "110.29",
    "lat": "20.0261",
    "district": "秀英区"
  },
  {
    "name": "鹏泰购物广场",
    "Address": "长流镇中心市场二、三楼",
    "type": "购物服务",
    "lng": "110.208",
    "lat": "20.0152",
    "district": "秀英区"
  },
  {
    "name": "金安便利超市",
    "Address": "丘浚路东150米",
    "type": "购物服务",
    "lng": "110.305",
    "lat": "19.9953",
    "district": "秀英区"
  },
  {
    "name": "好运来特产店",
    "Address": "站前北路北50米",
    "type": "购物服务",
    "lng": "110.17",
    "lat": "20.0345",
    "district": "秀英区"
  },
  {
    "name": "天翼营业厅(丘海大道店)",
    "Address": "丘海大道118号",
    "type": "购物服务",
    "lng": "110.301",
    "lat": "19.9978",
    "district": "秀英区"
  },
  {
    "name": "洪之君烟酒商行",
    "Address": "海秀街道瑞园二期旁",
    "type": "购物服务",
    "lng": "110.292",
    "lat": "20.0195",
    "district": "秀英区"
  },
  {
    "name": "AOPPLESI",
    "Address": "秀华路与金鼎路交叉口西北50米",
    "type": "购物服务",
    "lng": "110.292",
    "lat": "20.0138",
    "district": "秀英区"
  },
  {
    "name": "茗天缘",
    "Address": "丽晶路9号丽晶维港",
    "type": "购物服务",
    "lng": "110.3",
    "lat": "20.0307",
    "district": "秀英区"
  },
  {
    "name": "菜鸟驿站(城市海岸小区四期速递易)",
    "Address": "长怡路林海居6栋出入口",
    "type": "生活服务",
    "lng": "110.247",
    "lat": "20.0259",
    "district": "秀英区"
  },
  {
    "name": "韦达装饰工程部",
    "Address": "双拥路31号",
    "type": "生活服务",
    "lng": "110.286",
    "lat": "20.0211",
    "district": "秀英区"
  },
  {
    "name": "足轩堂(丘海一横路)",
    "Address": "丘海一横路福隆广场C栋2层",
    "type": "生活服务",
    "lng": "110.292",
    "lat": "20.0221",
    "district": "秀英区"
  },
  {
    "name": "慧灵电脑服务部",
    "Address": "东方洋路9号附近",
    "type": "生活服务",
    "lng": "110.298",
    "lat": "20.0233",
    "district": "秀英区"
  },
  {
    "name": "海口市邮政局投递局",
    "Address": "丘海大道4号",
    "type": "生活服务",
    "lng": "110.3",
    "lat": "20.0248",
    "district": "秀英区"
  },
  {
    "name": "源剪烫染造型",
    "Address": "向荣路与科技大道交叉口东50米",
    "type": "生活服务",
    "lng": "110.269",
    "lat": "20.0065",
    "district": "秀英区"
  },
  {
    "name": "海口农商银行(东山支行)",
    "Address": "东山镇解放路22号",
    "type": "金融保险服务",
    "lng": "110.246",
    "lat": "19.7557",
    "district": "秀英区"
  },
  {
    "name": "振业小区",
    "Address": "兴海路北100米",
    "type": "商务住宅",
    "lng": "110.258",
    "lat": "20.0099",
    "district": "秀英区"
  },
  {
    "name": "天伦·誉海湾2期",
    "Address": "海盛路46号附近",
    "type": "商务住宅",
    "lng": "110.275",
    "lat": "20.0211",
    "district": "秀英区"
  },
  {
    "name": "海口农商银行24小时自助银行(250乡道)",
    "Address": "250乡道西50米",
    "type": "金融保险服务",
    "lng": "110.196",
    "lat": "19.8813",
    "district": "秀英区"
  },
  {
    "name": "久诚投资(长滨东一街)",
    "Address": "长滨三路与长滨东一街交叉口东100米",
    "type": "金融保险服务",
    "lng": "110.205",
    "lat": "20.057",
    "district": "秀英区"
  },
  {
    "name": "金沙湾三路与永庆大道东路交叉口",
    "Address": "永庆大道东路东50米",
    "type": "交通设施服务",
    "lng": "110.163",
    "lat": "20.0253",
    "district": "秀英区"
  },
  {
    "name": "科技大道路口(公交站)",
    "Address": "62路",
    "type": "交通设施服务",
    "lng": "110.268",
    "lat": "20.0169",
    "district": "秀英区"
  },
  {
    "name": "长流镇人民政府",
    "Address": "长流镇长生路40号",
    "type": "政府机构及社会团体",
    "lng": "110.208",
    "lat": "20.0178",
    "district": "秀英区"
  },
  {
    "name": "海南荣程钢铁有限公司",
    "Address": "海盛路97号",
    "type": "公司企业",
    "lng": "110.259",
    "lat": "20.016",
    "district": "秀英区"
  },
  {
    "name": "海口市林业科学研究所种苗基地",
    "Address": "海盛路229号附近",
    "type": "公司企业",
    "lng": "110.226",
    "lat": "20.0145",
    "district": "秀英区"
  },
  {
    "name": "海口富盛通实业有限公司",
    "Address": "丘海大道太平村路口斜对面",
    "type": "公司企业",
    "lng": "110.301",
    "lat": "19.9539",
    "district": "秀英区"
  },
  {
    "name": "海南安驰达贸易有限公司",
    "Address": "南海大道230号",
    "type": "公司企业",
    "lng": "110.281",
    "lat": "20.0013",
    "district": "秀英区"
  },
  {
    "name": "太阳网厂",
    "Address": "向荣路9号",
    "type": "公司企业",
    "lng": "110.279",
    "lat": "20.008",
    "district": "秀英区"
  },
  {
    "name": "珠海市公路工程监理有限公司海南分公司",
    "Address": "美俗路5号附近",
    "type": "公司企业",
    "lng": "110.297",
    "lat": "20.0073",
    "district": "秀英区"
  },
  {
    "name": "原水产加工厂",
    "Address": "丘海一横路26号佳源小区即",
    "type": "公司企业",
    "lng": "110.293",
    "lat": "20.0218",
    "district": "秀英区"
  },
  {
    "name": "椰宝糖业有限公司",
    "Address": "142县道西50米",
    "type": "公司企业",
    "lng": "110.2",
    "lat": "19.8863",
    "district": "秀英区"
  },
  {
    "name": "哦啦啦",
    "Address": "和谐路2-3号",
    "type": "餐饮服务",
    "lng": "110.259",
    "lat": "20.0204",
    "district": "秀英区"
  },
  {
    "name": "旺湘园",
    "Address": "美华路9-12号",
    "type": "餐饮服务",
    "lng": "110.296",
    "lat": "20.0067",
    "district": "秀英区"
  },
  {
    "name": "华苑盛元酒店-棋牌室",
    "Address": "秀英大道11号华苑盛元酒店",
    "type": "体育休闲服务",
    "lng": "110.288",
    "lat": "20.0168",
    "district": "秀英区"
  },
  {
    "name": "潮汕风味",
    "Address": "双拥路与滨海大道交叉口南50米",
    "type": "餐饮服务",
    "lng": "110.287",
    "lat": "20.026",
    "district": "秀英区"
  },
  {
    "name": "粉红磨坊蛋糕工作室",
    "Address": "海秀路174号西站对面(海垦天桥旁边)",
    "type": "餐饮服务",
    "lng": "110.296",
    "lat": "20.0202",
    "district": "秀英区"
  },
  {
    "name": "楚湘园湖北野鸭农家土鸡",
    "Address": "港澳科技大道16号附近",
    "type": "餐饮服务",
    "lng": "110.268",
    "lat": "20.0084",
    "district": "秀英区"
  },
  {
    "name": "原汁原味罐煨汤(海秀西路)",
    "Address": "海秀西路44-45号附近",
    "type": "餐饮服务",
    "lng": "110.298",
    "lat": "20.0191",
    "district": "秀英区"
  },
  {
    "name": "天天餐饮食店",
    "Address": "丘海一横路与海秀立交桥交叉口西150米",
    "type": "餐饮服务",
    "lng": "110.299",
    "lat": "20.0216",
    "district": "秀英区"
  },
  {
    "name": "湘腊馆传统木桶饭",
    "Address": "秀华路二十一世纪西侧第八间铺面(即美华路铺面)",
    "type": "餐饮服务",
    "lng": "110.299",
    "lat": "20.0134",
    "district": "秀英区"
  },
  {
    "name": "万声通讯",
    "Address": "科技大道向荣村商业街51号",
    "type": "购物服务",
    "lng": "110.268",
    "lat": "20.0085",
    "district": "秀英区"
  },
  {
    "name": "植物医院",
    "Address": "秀英街道椰海大道周仁村水塔旁铺面",
    "type": "购物服务",
    "lng": "110.286",
    "lat": "20.0032",
    "district": "秀英区"
  },
  {
    "name": "广信源兴超市",
    "Address": "向荣路7-1",
    "type": "购物服务",
    "lng": "110.283",
    "lat": "20.008",
    "district": "秀英区"
  },
  {
    "name": "安泰钢结构",
    "Address": "海秀镇海榆中线六公里处世英仓储铺面",
    "type": "购物服务",
    "lng": "110.277",
    "lat": "19.9677",
    "district": "秀英区"
  },
  {
    "name": "海口市秀英区联业阀门经营部",
    "Address": "秀英大道99号附近",
    "type": "购物服务",
    "lng": "110.287",
    "lat": "20.0072",
    "district": "秀英区"
  },
  {
    "name": "海南富安门锁",
    "Address": "美俗路南150米",
    "type": "购物服务",
    "lng": "110.291",
    "lat": "20.0064",
    "district": "秀英区"
  },
  {
    "name": "鑫隆发五金商行",
    "Address": "美俗路45号附近",
    "type": "购物服务",
    "lng": "110.291",
    "lat": "20.0079",
    "district": "秀英区"
  },
  {
    "name": "增致牛仔(秀华路)",
    "Address": "秀华路53号海秀卫生院大楼1层",
    "type": "购物服务",
    "lng": "110.289",
    "lat": "20.0131",
    "district": "秀英区"
  },
  {
    "name": "金顺门窗加工部",
    "Address": "秀华路与金鼎路交叉口南200米",
    "type": "购物服务",
    "lng": "110.292",
    "lat": "20.012",
    "district": "秀英区"
  },
  {
    "name": "361度(秀英专卖店)",
    "Address": "秀华路海秀医院1楼",
    "type": "购物服务",
    "lng": "110.292",
    "lat": "20.0138",
    "district": "秀英区"
  },
  {
    "name": "浪花果业果天下",
    "Address": "海秀快速路与海秀快速路出口交叉口东南150米",
    "type": "购物服务",
    "lng": "110.29",
    "lat": "20.0189",
    "district": "秀英区"
  },
  {
    "name": "吉祥公寓",
    "Address": "秀英街道书场村家佳幼儿园旁",
    "type": "住宿服务",
    "lng": "110.291",
    "lat": "20.0148",
    "district": "秀英区"
  },
  {
    "name": "班朝庙",
    "Address": "帮扶路附近",
    "type": "风景名胜",
    "lng": "110.191",
    "lat": "20.0365",
    "district": "秀英区"
  },
  {
    "name": "佳驰装饰公司",
    "Address": "向荣路北50米",
    "type": "生活服务",
    "lng": "110.284",
    "lat": "20.0085",
    "district": "秀英区"
  },
  {
    "name": "翔然照相馆",
    "Address": "海商路与秀英大道交叉口东200米",
    "type": "生活服务",
    "lng": "110.289",
    "lat": "20.0163",
    "district": "秀英区"
  },
  {
    "name": "发丝缘",
    "Address": "金鼎路8-18",
    "type": "生活服务",
    "lng": "110.293",
    "lat": "20.0157",
    "district": "秀英区"
  },
  {
    "name": "百世快递",
    "Address": "丘海横路30号梦幻小区对面",
    "type": "生活服务",
    "lng": "110.294",
    "lat": "20.0217",
    "district": "秀英区"
  },
  {
    "name": "经道美颜养生会所(海秀店)",
    "Address": "秀英丘海一横路祥瑞苑A栋702房(靠近东方洋十字路口)",
    "type": "生活服务",
    "lng": "110.297",
    "lat": "20.0217",
    "district": "秀英区"
  },
  {
    "name": "西海豪园",
    "Address": "豪庭路2",
    "type": "商务住宅",
    "lng": "110.225",
    "lat": "20.0528",
    "district": "秀英区"
  },
  {
    "name": "海南省扶贫工业开发区",
    "Address": "富康路东200米",
    "type": "商务住宅",
    "lng": "110.295",
    "lat": "19.9906",
    "district": "秀英区"
  },
  {
    "name": "海岛·阳光2期",
    "Address": "秀英大道33号",
    "type": "商务住宅",
    "lng": "110.289",
    "lat": "20.0104",
    "district": "秀英区"
  },
  {
    "name": "柏斯观海台壹号",
    "Address": "西海岸长信路10号",
    "type": "商务住宅",
    "lng": "110.263",
    "lat": "20.0261",
    "district": "秀英区"
  },
  {
    "name": "海秀中心小学",
    "Address": "新村",
    "type": "科教文化服务",
    "lng": "110.289",
    "lat": "20.0004",
    "district": "秀英区"
  },
  {
    "name": "湘苑艺术幼儿园第二分园",
    "Address": "秀英大道18号第一砖厂宿舍",
    "type": "科教文化服务",
    "lng": "110.285",
    "lat": "20.0114",
    "district": "秀英区"
  },
  {
    "name": "海盛路与长秀路",
    "Address": "长秀路62号",
    "type": "交通设施服务",
    "lng": "110.268",
    "lat": "20.0175",
    "district": "秀英区"
  },
  {
    "name": "中山大学中山眼科中心海南眼科医院",
    "Address": "秀华路19号(省人民医院留医部内)",
    "type": "医疗保健服务",
    "lng": "110.295",
    "lat": "20.0108",
    "district": "秀英区"
  },
  {
    "name": "鸿春堂药房(金鼎路分店)",
    "Address": "金鼎路金湾花园商铺111号",
    "type": "医疗保健服务",
    "lng": "110.294",
    "lat": "20.0162",
    "district": "秀英区"
  },
  {
    "name": "海口市秀英区海秀街道办事处东方洋社区居民委员会",
    "Address": "海秀街道东方洋路14-11号",
    "type": "政府机构及社会团体",
    "lng": "110.297",
    "lat": "20.0222",
    "district": "秀英区"
  },
  {
    "name": "海南大白康健医药股份有限公司",
    "Address": "海秀镇南海大道266号高新区创业孵化中心3楼B3",
    "type": "公司企业",
    "lng": "110.27",
    "lat": "20.0019",
    "district": "秀英区"
  },
  {
    "name": "海南德家房产公司",
    "Address": "万花坊北门k栋112号铺面美俗路",
    "type": "公司企业",
    "lng": "110.298",
    "lat": "20.0072",
    "district": "秀英区"
  },
  {
    "name": "海南沧盛钢铁有限公司",
    "Address": "海盛路26号",
    "type": "公司企业",
    "lng": "110.278",
    "lat": "20.019",
    "district": "秀英区"
  },
  {
    "name": "海南诚源房地产开发有限公司",
    "Address": "滨海大道海港大厦",
    "type": "公司企业",
    "lng": "110.292",
    "lat": "20.0256",
    "district": "秀英区"
  },
  {
    "name": "海口粤盛海汕包装制品有限公司",
    "Address": "港澳开发区科技大道6号",
    "type": "公司企业",
    "lng": "110.268",
    "lat": "20.0139",
    "district": "秀英区"
  },
  {
    "name": "李记酱骨炖菜馆",
    "Address": "秀英街道向荣路路口西城秀舍二楼东北",
    "type": "餐饮服务",
    "lng": "110.286",
    "lat": "20.0065",
    "district": "秀英区"
  },
  {
    "name": "肥牛五香羊鹅肠烧烤火锅城",
    "Address": "美俗路70-8号附近",
    "type": "餐饮服务",
    "lng": "110.289",
    "lat": "20.0082",
    "district": "秀英区"
  },
  {
    "name": "夜宵烧烤",
    "Address": "秀英大道35号泰河苑小区西-11号铺面",
    "type": "餐饮服务",
    "lng": "110.287",
    "lat": "20.0088",
    "district": "秀英区"
  },
  {
    "name": "果果茶饮",
    "Address": "秀英大道海波路14号国昌茶叶商行旁",
    "type": "餐饮服务",
    "lng": "110.286",
    "lat": "20.011",
    "district": "秀英区"
  },
  {
    "name": "福隆广场游泳池",
    "Address": "丘海一横路福隆广场内",
    "type": "体育休闲服务",
    "lng": "110.291",
    "lat": "20.023",
    "district": "秀英区"
  },
  {
    "name": "老二牛腩店",
    "Address": "丘海一横路22号生态园对面",
    "type": "餐饮服务",
    "lng": "110.296",
    "lat": "20.0216",
    "district": "秀英区"
  },
  {
    "name": "茶之道(东方洋店)",
    "Address": "东方洋路14号",
    "type": "餐饮服务",
    "lng": "110.297",
    "lat": "20.0221",
    "district": "秀英区"
  },
  {
    "name": "金航建材批发商行",
    "Address": "206乡道与224国道交叉口南200米",
    "type": "购物服务",
    "lng": "110.275",
    "lat": "19.8922",
    "district": "秀英区"
  },
  {
    "name": "金英达木材批发市场",
    "Address": "椰海大道北50米",
    "type": "购物服务",
    "lng": "110.247",
    "lat": "19.9848",
    "district": "秀英区"
  },
  {
    "name": "展兴高新商城",
    "Address": "南海大道与永万路交叉口北200米",
    "type": "购物服务",
    "lng": "110.272",
    "lat": "20.0036",
    "district": "秀英区"
  },
  {
    "name": "海口秀英全民好兽药经营部",
    "Address": "海榆中线30号",
    "type": "购物服务",
    "lng": "110.286",
    "lat": "19.9978",
    "district": "秀英区"
  },
  {
    "name": "广东亚联铝材",
    "Address": "224国道13号附近",
    "type": "购物服务",
    "lng": "110.286",
    "lat": "20.0009",
    "district": "秀英区"
  },
  {
    "name": "百益佳便利店",
    "Address": "224国道11号附近",
    "type": "购物服务",
    "lng": "110.286",
    "lat": "20.0013",
    "district": "秀英区"
  },
  {
    "name": "晨光文具",
    "Address": "南海大道金福路海口新村309号",
    "type": "购物服务",
    "lng": "110.29",
    "lat": "20.0002",
    "district": "秀英区"
  },
  {
    "name": "永兴钢构",
    "Address": "海盛路60号",
    "type": "购物服务",
    "lng": "110.272",
    "lat": "20.0188",
    "district": "秀英区"
  },
  {
    "name": "新明五金水暖商行",
    "Address": "秀新路与秀英大道交叉口东南50米",
    "type": "购物服务",
    "lng": "110.288",
    "lat": "20.0096",
    "district": "秀英区"
  },
  {
    "name": "佳和窗帘(海岛·阳光北)",
    "Address": "秀英大道海岛阳光5号",
    "type": "购物服务",
    "lng": "110.288",
    "lat": "20.011",
    "district": "秀英区"
  },
  {
    "name": "誉邦电器",
    "Address": "秀英大道四建公寓12-2号首层",
    "type": "购物服务",
    "lng": "110.287",
    "lat": "20.0159",
    "district": "秀英区"
  },
  {
    "name": "豪宇宾馆",
    "Address": "海秀大道180号",
    "type": "住宿服务",
    "lng": "110.288",
    "lat": "20.0183",
    "district": "秀英区"
  },
  {
    "name": "广东鑫达石材",
    "Address": "225国道南50米",
    "type": "购物服务",
    "lng": "110.199",
    "lat": "20.0169",
    "district": "秀英区"
  },
  {
    "name": "润宝商务酒店(火车站店)",
    "Address": "长流镇海盛路传桂村村口(传桂小学旁边)",
    "type": "住宿服务",
    "lng": "110.218",
    "lat": "20.0177",
    "district": "秀英区"
  },
  {
    "name": "衣见钟情服装",
    "Address": "秀英街道邦溪镇老市场对面",
    "type": "购物服务",
    "lng": "110.298",
    "lat": "20.0129",
    "district": "秀英区"
  },
  {
    "name": "旭东升房产",
    "Address": "和谐路16-5",
    "type": "生活服务",
    "lng": "110.258",
    "lat": "20.0244",
    "district": "秀英区"
  },
  {
    "name": "小丘电动摩托车修理",
    "Address": "[]",
    "type": "生活服务",
    "lng": "110.282",
    "lat": "19.9904",
    "district": "秀英区"
  },
  {
    "name": "盛裕达物流",
    "Address": "罗牛山第一汽配城B座60-62号",
    "type": "生活服务",
    "lng": "110.297",
    "lat": "19.9948",
    "district": "秀英区"
  },
  {
    "name": "新村大众理发",
    "Address": "南海大道180号附近",
    "type": "生活服务",
    "lng": "110.29",
    "lat": "20.0004",
    "district": "秀英区"
  },
  {
    "name": "新杰物流(美康街)",
    "Address": "秀英街道凤凰花城滨涯湖新村美康街5号",
    "type": "生活服务",
    "lng": "110.295",
    "lat": "20.0049",
    "district": "秀英区"
  },
  {
    "name": "亮秀发形室",
    "Address": "海商路与秀英大道交叉口东北200米",
    "type": "生活服务",
    "lng": "110.289",
    "lat": "20.0177",
    "district": "秀英区"
  },
  {
    "name": "美新造型",
    "Address": "秀英小街书场村八队405号",
    "type": "生活服务",
    "lng": "110.289",
    "lat": "20.0174",
    "district": "秀英区"
  },
  {
    "name": "中国太平洋保险(集团)股份有限公司(海口安捷便民服务点)",
    "Address": "富康路与224国道交叉口东北100米",
    "type": "金融保险服务",
    "lng": "110.287",
    "lat": "19.9938",
    "district": "秀英区"
  },
  {
    "name": "中国农业银行24小时自助银行(海口金鼎支行)",
    "Address": "海秀大道160号金鼎大厦1楼",
    "type": "金融保险服务",
    "lng": "110.293",
    "lat": "20.0186",
    "district": "秀英区"
  },
  {
    "name": "夏威夷海岸(公交站)",
    "Address": "28路;28路B线;35路;37路;40路;57路;澄迈35路",
    "type": "交通设施服务",
    "lng": "110.185",
    "lat": "20.061",
    "district": "秀英区"
  },
  {
    "name": "誉海湾西门(公交站)",
    "Address": "70路;208路;209路",
    "type": "交通设施服务",
    "lng": "110.273",
    "lat": "20.0195",
    "district": "秀英区"
  },
  {
    "name": "无限极",
    "Address": "海波市场第一砖厂内进200米",
    "type": "医疗保健服务",
    "lng": "110.285",
    "lat": "20.0113",
    "district": "秀英区"
  },
  {
    "name": "海口市林业服务中心",
    "Address": "长怡路19号",
    "type": "公司企业",
    "lng": "110.255",
    "lat": "20.0235",
    "district": "秀英区"
  },
  {
    "name": "珠江啤酒仓库",
    "Address": "秀英街道港澳大道兴海路19号",
    "type": "公司企业",
    "lng": "110.261",
    "lat": "20.0092",
    "district": "秀英区"
  },
  {
    "name": "锦瑞实业",
    "Address": "海秀镇水头村4区61号",
    "type": "公司企业",
    "lng": "110.305",
    "lat": "19.9922",
    "district": "秀英区"
  },
  {
    "name": "海南海岛置业有限公司",
    "Address": "金福北路11号",
    "type": "公司企业",
    "lng": "110.292",
    "lat": "19.9974",
    "district": "秀英区"
  },
  {
    "name": "万客有限公司",
    "Address": "药谷一横路16号壹号药业内",
    "type": "公司企业",
    "lng": "110.266",
    "lat": "19.9987",
    "district": "秀英区"
  },
  {
    "name": "恒安仓库",
    "Address": "海盛路秀英公安分局后安得物流园内",
    "type": "公司企业",
    "lng": "110.275",
    "lat": "20.0182",
    "district": "秀英区"
  },
  {
    "name": "快乐仓库",
    "Address": "海秀街道东方洋路4号1楼",
    "type": "公司企业",
    "lng": "110.297",
    "lat": "20.0248",
    "district": "秀英区"
  },
  {
    "name": "蓝天路自助餐",
    "Address": "滨海大道219号",
    "type": "餐饮服务",
    "lng": "110.237",
    "lat": "20.0403",
    "district": "秀英区"
  },
  {
    "name": "小咖来了",
    "Address": "滨海大道189-1号泰达天海国际2号地1区商铺108号",
    "type": "餐饮服务",
    "lng": "110.26",
    "lat": "20.0287",
    "district": "秀英区"
  },
  {
    "name": "一扫光(锦地翰城店)",
    "Address": "白水塘路锦地翰城二期A区六号楼底",
    "type": "餐饮服务",
    "lng": "110.292",
    "lat": "19.9853",
    "district": "秀英区"
  },
  {
    "name": "宜家餐厅",
    "Address": "锦地翰城二期商业街2楼",
    "type": "餐饮服务",
    "lng": "110.299",
    "lat": "19.9876",
    "district": "秀英区"
  },
  {
    "name": "优资茶(秀英总店)",
    "Address": "海商路3号",
    "type": "餐饮服务",
    "lng": "110.287",
    "lat": "20.0159",
    "district": "秀英区"
  },
  {
    "name": "杨甲烧烤",
    "Address": "金鼎路21号",
    "type": "餐饮服务",
    "lng": "110.292",
    "lat": "20.0154",
    "district": "秀英区"
  },
  {
    "name": "重庆酸菜鱼",
    "Address": "海盛路9号商业学校大专部旁边",
    "type": "餐饮服务",
    "lng": "110.283",
    "lat": "20.019",
    "district": "秀英区"
  },
  {
    "name": "茶语时光",
    "Address": "秀英大道秀华路69号秀华快餐店旁",
    "type": "餐饮服务",
    "lng": "110.292",
    "lat": "20.0137",
    "district": "秀英区"
  },
  {
    "name": "飞腾永乐石膏天花吊顶",
    "Address": "秀英街道向荣路3号",
    "type": "购物服务",
    "lng": "110.283",
    "lat": "20.008",
    "district": "秀英区"
  },
  {
    "name": "假日店",
    "Address": "秀英街道天伦誉海湾8栋",
    "type": "购物服务",
    "lng": "110.274",
    "lat": "20.0184",
    "district": "秀英区"
  },
  {
    "name": "琪琦孕婴童(第11分店)",
    "Address": "秀英大道89号附近",
    "type": "购物服务",
    "lng": "110.288",
    "lat": "20.0104",
    "district": "秀英区"
  },
  {
    "name": "旅安商行",
    "Address": "海秀街道双拥路上27号(双拥招待所旁边)",
    "type": "购物服务",
    "lng": "110.286",
    "lat": "20.0204",
    "district": "秀英区"
  },
  {
    "name": "康耐登",
    "Address": "居然之家一楼",
    "type": "购物服务",
    "lng": "110.29",
    "lat": "20.0261",
    "district": "秀英区"
  },
  {
    "name": "海口秀英老乡副食商行",
    "Address": "海秀镇丘海大道水头村小博士幼儿园斜对面",
    "type": "购物服务",
    "lng": "110.302",
    "lat": "19.9947",
    "district": "秀英区"
  },
  {
    "name": "鸿运小卖部",
    "Address": "长流镇海力路",
    "type": "购物服务",
    "lng": "110.224",
    "lat": "20.0114",
    "district": "秀英区"
  },
  {
    "name": "爱可园林机械",
    "Address": "南海大道145号兰亭雅苑8号铺面",
    "type": "购物服务",
    "lng": "110.292",
    "lat": "20.0031",
    "district": "秀英区"
  },
  {
    "name": "德国帝森",
    "Address": "城西镇南海大道过度建材城一期4楼",
    "type": "购物服务",
    "lng": "110.297",
    "lat": "20.0015",
    "district": "秀英区"
  },
  {
    "name": "隆丰源商行",
    "Address": "美俗路87号",
    "type": "购物服务",
    "lng": "110.29",
    "lat": "20.0079",
    "district": "秀英区"
  },
  {
    "name": "滕恒手机卖场",
    "Address": "绣华路58号3号",
    "type": "购物服务",
    "lng": "110.29",
    "lat": "20.0137",
    "district": "秀英区"
  },
  {
    "name": "录德地产(长怡店)",
    "Address": "长怡路23号城市海岸南区商业1层122号",
    "type": "生活服务",
    "lng": "110.257",
    "lat": "20.0212",
    "district": "秀英区"
  },
  {
    "name": "鹿富物流",
    "Address": "南海大道235号华信物流配送中心a11-12号",
    "type": "生活服务",
    "lng": "110.281",
    "lat": "20.0031",
    "district": "秀英区"
  },
  {
    "name": "中天汗蒸养生馆",
    "Address": "美俗路美俗村2巷92号",
    "type": "生活服务",
    "lng": "110.291",
    "lat": "20.0066",
    "district": "秀英区"
  },
  {
    "name": "海利不锈钢制作部",
    "Address": "秀新路与秀英大道交叉口东南100米",
    "type": "生活服务",
    "lng": "110.288",
    "lat": "20.0096",
    "district": "秀英区"
  },
  {
    "name": "美容美甲",
    "Address": "秀华路60号",
    "type": "生活服务",
    "lng": "110.289",
    "lat": "20.0138",
    "district": "秀英区"
  },
  {
    "name": "洋浦利航物流有限公司",
    "Address": "滨海大道141号中外运大厦5层",
    "type": "生活服务",
    "lng": "110.295",
    "lat": "20.025",
    "district": "秀英区"
  },
  {
    "name": "专业维修电动车",
    "Address": "长新路16号附近",
    "type": "生活服务",
    "lng": "110.207",
    "lat": "20.0188",
    "district": "秀英区"
  },
  {
    "name": "宏德山庄",
    "Address": "高新技术开发区",
    "type": "商务住宅",
    "lng": "110.274",
    "lat": "19.946",
    "district": "秀英区"
  },
  {
    "name": "海口农商银行24小时自助银行",
    "Address": "白水塘路15号附近",
    "type": "金融保险服务",
    "lng": "110.292",
    "lat": "19.9883",
    "district": "秀英区"
  },
  {
    "name": "石山中心幼儿园",
    "Address": "振兴街与环市街交叉口南100米",
    "type": "科教文化服务",
    "lng": "110.218",
    "lat": "19.9349",
    "district": "秀英区"
  },
  {
    "name": "西海岸高尔夫球场(公交站)",
    "Address": "209路",
    "type": "交通设施服务",
    "lng": "110.24",
    "lat": "20.0334",
    "district": "秀英区"
  },
  {
    "name": "爱其艺艺术培训",
    "Address": "秀英街道白水塘路锦地翰城商业街A区301室三楼(市一高中部水分子游泳馆对面)",
    "type": "科教文化服务",
    "lng": "110.293",
    "lat": "19.9879",
    "district": "秀英区"
  },
  {
    "name": "骏昌驾驶培训学校秀新路报名点",
    "Address": "秀新路2号海岛.阳光一期小区西侧102铺面",
    "type": "科教文化服务",
    "lng": "110.291",
    "lat": "20.0097",
    "district": "秀英区"
  },
  {
    "name": "博生药店(长康路)",
    "Address": "长康路45号附近",
    "type": "医疗保健服务",
    "lng": "110.208",
    "lat": "20.0148",
    "district": "秀英区"
  },
  {
    "name": "海南省皮肤病医院秀英门诊部",
    "Address": "海盛路3号",
    "type": "医疗保健服务",
    "lng": "110.286",
    "lat": "20.0191",
    "district": "秀英区"
  },
  {
    "name": "海南恒安华汽车检测服务有限公司",
    "Address": "海盛路109号",
    "type": "政府机构及社会团体",
    "lng": "110.255",
    "lat": "20.0156",
    "district": "秀英区"
  },
  {
    "name": "药谷工业园区管理委员会",
    "Address": "药谷工业园区(南海大道西66号)",
    "type": "政府机构及社会团体",
    "lng": "110.277",
    "lat": "19.9968",
    "district": "秀英区"
  },
  {
    "name": "海口市外事侨务办公室",
    "Address": "长滨路海口市政府第二办公区6幢4楼",
    "type": "政府机构及社会团体",
    "lng": "110.205",
    "lat": "20.0503",
    "district": "秀英区"
  },
  {
    "name": "鑫宏达集装箱",
    "Address": "长流镇南海大道(省气象台西行500米)",
    "type": "公司企业",
    "lng": "110.249",
    "lat": "20.0007",
    "district": "秀英区"
  },
  {
    "name": "魁星观光园",
    "Address": "142县道西50米",
    "type": "公司企业",
    "lng": "110.249",
    "lat": "19.9391",
    "district": "秀英区"
  },
  {
    "name": "海口鑫林印刷业有限公司",
    "Address": "美华路东50米",
    "type": "公司企业",
    "lng": "110.297",
    "lat": "20.0096",
    "district": "秀英区"
  },
  {
    "name": "海南预备役师",
    "Address": "赵佳锋海盛路7号",
    "type": "公司企业",
    "lng": "110.285",
    "lat": "20.0193",
    "district": "秀英区"
  },
  {
    "name": "重庆天纬渝盛建设(集团)有限公司海南分公司",
    "Address": "唐苑别墅D2栋",
    "type": "公司企业",
    "lng": "110.3",
    "lat": "20.024",
    "district": "秀英区"
  },
  {
    "name": "欢聚一堂饭馆火锅",
    "Address": "长滨六路与长滨西三街交叉口南100米",
    "type": "餐饮服务",
    "lng": "110.189",
    "lat": "20.0518",
    "district": "秀英区"
  },
  {
    "name": "欢乐海岸美食联盟-潮汕家宴",
    "Address": "滨海大道187号",
    "type": "餐饮服务",
    "lng": "110.246",
    "lat": "20.0394",
    "district": "秀英区"
  },
  {
    "name": "深发大排档",
    "Address": "国兴大道68号",
    "type": "餐饮服务",
    "lng": "110.289",
    "lat": "20.0082",
    "district": "秀英区"
  },
  {
    "name": "富莲美食店",
    "Address": "秀华路十四中对面小巷内进十多米",
    "type": "餐饮服务",
    "lng": "110.29",
    "lat": "20.014",
    "district": "秀英区"
  },
  {
    "name": "异地爱蛋糕(海秀西路店)",
    "Address": "海秀西路171号",
    "type": "餐饮服务",
    "lng": "110.294",
    "lat": "20.0198",
    "district": "秀英区"
  },
  {
    "name": "琼中农家一品汤",
    "Address": "兴海路12号",
    "type": "餐饮服务",
    "lng": "110.27",
    "lat": "20.0098",
    "district": "秀英区"
  },
  {
    "name": "莎莉窗帘",
    "Address": "海盛路祥和家园5号楼",
    "type": "购物服务",
    "lng": "110.266",
    "lat": "20.0176",
    "district": "秀英区"
  },
  {
    "name": "皮阿诺衣柜",
    "Address": "滨海大道秀英港旁居然之家五楼",
    "type": "购物服务",
    "lng": "110.29",
    "lat": "20.0261",
    "district": "秀英区"
  },
  {
    "name": "长流兴荣五金商行",
    "Address": "长康路26号附近",
    "type": "购物服务",
    "lng": "110.208",
    "lat": "20.0133",
    "district": "秀英区"
  },
  {
    "name": "王力门业(长滨路)",
    "Address": "长滨路东50米",
    "type": "购物服务",
    "lng": "110.215",
    "lat": "20.0139",
    "district": "秀英区"
  },
  {
    "name": "海口秀英普惠民生商行",
    "Address": "225国道南50米",
    "type": "购物服务",
    "lng": "110.2",
    "lat": "20.0168",
    "district": "秀英区"
  },
  {
    "name": "配件电脑营销城",
    "Address": "长流镇长康路",
    "type": "购物服务",
    "lng": "110.208",
    "lat": "20.0178",
    "district": "秀英区"
  },
  {
    "name": "龙凤公寓(海口十四中学店)",
    "Address": "秀华路秀英十四中斜对面巷子入内第一家宾馆",
    "type": "住宿服务",
    "lng": "110.29",
    "lat": "20.0139",
    "district": "秀英区"
  },
  {
    "name": "奇志手机电器超市",
    "Address": "书场村136号",
    "type": "购物服务",
    "lng": "110.289",
    "lat": "20.0151",
    "district": "秀英区"
  },
  {
    "name": "海口e家公寓F店",
    "Address": "海秀西路金鼎大厦附近(书场村六队327号)",
    "type": "住宿服务",
    "lng": "110.294",
    "lat": "20.019",
    "district": "秀英区"
  },
  {
    "name": "雷克斯自行车(秀华路)",
    "Address": "秀华路与美华路交叉口西北50米",
    "type": "购物服务",
    "lng": "110.299",
    "lat": "20.0137",
    "district": "秀英区"
  },
  {
    "name": "万宁商行",
    "Address": "秀华路32-20号",
    "type": "购物服务",
    "lng": "110.294",
    "lat": "20.0137",
    "district": "秀英区"
  },
  {
    "name": "中坤茗香茶业(海口店)",
    "Address": "金鼎路金华苑D栋2号铺",
    "type": "购物服务",
    "lng": "110.294",
    "lat": "20.017",
    "district": "秀英区"
  },
  {
    "name": "天天新出租",
    "Address": "金鼎路小康新村149号",
    "type": "住宿服务",
    "lng": "110.294",
    "lat": "20.0159",
    "district": "秀英区"
  },
  {
    "name": "海南光头诚信物流运输",
    "Address": "丘海大道128号附近",
    "type": "生活服务",
    "lng": "110.3",
    "lat": "19.998",
    "district": "秀英区"
  },
  {
    "name": "互盈物流有限公司",
    "Address": "秀英街道丘海大道118号华信物流旁",
    "type": "生活服务",
    "lng": "110.3",
    "lat": "19.9919",
    "district": "秀英区"
  },
  {
    "name": "罗牛山广场营销中心",
    "Address": "滨海大道78号",
    "type": "生活服务",
    "lng": "110.299",
    "lat": "20.0271",
    "district": "秀英区"
  },
  {
    "name": "棕榈泉售楼中心",
    "Address": "丘海大道30号棕榈泉",
    "type": "商务住宅",
    "lng": "110.301",
    "lat": "20.0152",
    "district": "秀英区"
  },
  {
    "name": "岛尚巢",
    "Address": "海港路232号附近",
    "type": "商务住宅",
    "lng": "110.291",
    "lat": "20.0224",
    "district": "秀英区"
  },
  {
    "name": "凯厦家园",
    "Address": "金滩路19号",
    "type": "商务住宅",
    "lng": "110.274",
    "lat": "20.026",
    "district": "秀英区"
  },
  {
    "name": "海南省农村信用社ATM(长新路)",
    "Address": "长康路7号",
    "type": "金融保险服务",
    "lng": "110.207",
    "lat": "20.0172",
    "district": "秀英区"
  },
  {
    "name": "狮子岭工业园(公交站)",
    "Address": "24路",
    "type": "交通设施服务",
    "lng": "110.274",
    "lat": "19.937",
    "district": "秀英区"
  },
  {
    "name": "蓝城印象(公交站)",
    "Address": "92路;208路;209路",
    "type": "交通设施服务",
    "lng": "110.273",
    "lat": "20.0224",
    "district": "秀英区"
  },
  {
    "name": "曾转牙科",
    "Address": "海港三横路与海港路交叉口东南150米",
    "type": "医疗保健服务",
    "lng": "110.29",
    "lat": "20.024",
    "district": "秀英区"
  },
  {
    "name": "中共海秀镇纪律检查委员会",
    "Address": "南海大道",
    "type": "政府机构及社会团体",
    "lng": "110.295",
    "lat": "19.9989",
    "district": "秀英区"
  },
  {
    "name": "海口市秀英区地方税务局",
    "Address": "美俗路18号",
    "type": "政府机构及社会团体",
    "lng": "110.293",
    "lat": "20.0073",
    "district": "秀英区"
  },
  {
    "name": "海南省流通药品检测中心",
    "Address": "兴国路与科技大道交叉口西100米",
    "type": "政府机构及社会团体",
    "lng": "110.267",
    "lat": "20.0063",
    "district": "秀英区"
  },
  {
    "name": "秀英区新增2008年中央投资农村公路工程办公室",
    "Address": "秀华路与美华路交叉口北150米",
    "type": "政府机构及社会团体",
    "lng": "110.299",
    "lat": "20.0148",
    "district": "秀英区"
  },
  {
    "name": "海口市秀英区人民法院",
    "Address": "海盛路68号",
    "type": "政府机构及社会团体",
    "lng": "110.267",
    "lat": "20.0175",
    "district": "秀英区"
  },
  {
    "name": "五源河派出所",
    "Address": "滨海大道与长海大道交叉口北200米",
    "type": "政府机构及社会团体",
    "lng": "110.201",
    "lat": "20.0625",
    "district": "秀英区"
  },
  {
    "name": "亚蔬高科种业",
    "Address": "椰海大道南50米",
    "type": "公司企业",
    "lng": "110.249",
    "lat": "19.9845",
    "district": "秀英区"
  },
  {
    "name": "海囗正惠农畜牧水产有限公司",
    "Address": "南海大道西21号",
    "type": "公司企业",
    "lng": "110.29",
    "lat": "20.0027",
    "district": "秀英区"
  },
  {
    "name": "海南华键农机有限公司",
    "Address": "秀英大道向荣路2号西城秀舍E栋英秀城1010商铺",
    "type": "公司企业",
    "lng": "110.286",
    "lat": "20.0059",
    "district": "秀英区"
  },
  {
    "name": "泓方租赁公司",
    "Address": "秀英街道永万路书场杰利粮油批发市场附近",
    "type": "公司企业",
    "lng": "110.277",
    "lat": "20.0133",
    "district": "秀英区"
  },
  {
    "name": "大米厨房(海口万达广场店)",
    "Address": "海榆中线29号万达广场室内步行街3层3053号商铺",
    "type": "餐饮服务",
    "lng": "110.286",
    "lat": "19.9857",
    "district": "秀英区"
  },
  {
    "name": "台湾荫火锅",
    "Address": "椰海大道万达广场3楼",
    "type": "餐饮服务",
    "lng": "110.285",
    "lat": "19.9858",
    "district": "秀英区"
  },
  {
    "name": "梦茶轩",
    "Address": "224国道西150米",
    "type": "餐饮服务",
    "lng": "110.284",
    "lat": "19.9897",
    "district": "秀英区"
  },
  {
    "name": "澄迈牛集店",
    "Address": "秀英大道海口新村6号铺面附近",
    "type": "餐饮服务",
    "lng": "110.288",
    "lat": "20.0017",
    "district": "秀英区"
  },
  {
    "name": "老北京涮羊肉(永万路店)",
    "Address": "永万路展兴高新花园S4栋10号下层",
    "type": "餐饮服务",
    "lng": "110.273",
    "lat": "20.004",
    "district": "秀英区"
  },
  {
    "name": "整点烧烤吧",
    "Address": "丘海一横路福隆广场A栋一楼28-2号(奇域网咖下)",
    "type": "餐饮服务",
    "lng": "110.289",
    "lat": "20.0228",
    "district": "秀英区"
  },
  {
    "name": "华友农家鹅肉店",
    "Address": "丘海一横路福隆广场大门叙对面",
    "type": "餐饮服务",
    "lng": "110.291",
    "lat": "20.0219",
    "district": "秀英区"
  },
  {
    "name": "剑客侠网咖",
    "Address": "金福路海岛国际名城旁边",
    "type": "体育休闲服务",
    "lng": "110.291",
    "lat": "19.9965",
    "district": "秀英区"
  },
  {
    "name": "乐众百货超市",
    "Address": "东山镇解放路65号",
    "type": "购物服务",
    "lng": "110.245",
    "lat": "19.7564",
    "district": "秀英区"
  },
  {
    "name": "万家鸿超市",
    "Address": "永兴镇中线路西侧附近",
    "type": "购物服务",
    "lng": "110.273",
    "lat": "19.8986",
    "district": "秀英区"
  },
  {
    "name": "美好商店",
    "Address": "秀英街道海榆中线富康路路口",
    "type": "购物服务",
    "lng": "110.287",
    "lat": "19.9933",
    "district": "秀英区"
  },
  {
    "name": "春安商行",
    "Address": "金福路21号附近",
    "type": "购物服务",
    "lng": "110.287",
    "lat": "19.9985",
    "district": "秀英区"
  },
  {
    "name": "永达斗车批发分店",
    "Address": "南海大道与224国道交叉口西150米",
    "type": "购物服务",
    "lng": "110.284",
    "lat": "20.0021",
    "district": "秀英区"
  },
  {
    "name": "何晶商行",
    "Address": "224国道23号附近",
    "type": "购物服务",
    "lng": "110.288",
    "lat": "19.9988",
    "district": "秀英区"
  },
  {
    "name": "劳保品被服",
    "Address": "金福路229号附近",
    "type": "购物服务",
    "lng": "110.291",
    "lat": "20.0004",
    "district": "秀英区"
  },
  {
    "name": "海口黑蚂蚁民宿",
    "Address": "长秀路13号芭普假日",
    "type": "住宿服务",
    "lng": "110.268",
    "lat": "20.0183",
    "district": "秀英区"
  },
  {
    "name": "秀英商场",
    "Address": "秀英大道68号",
    "type": "购物服务",
    "lng": "110.288",
    "lat": "20.014",
    "district": "秀英区"
  },
  {
    "name": "海口荆园宾馆",
    "Address": "秀英大道军供站对面",
    "type": "住宿服务",
    "lng": "110.288",
    "lat": "20.0186",
    "district": "秀英区"
  },
  {
    "name": "金凤便利店(滨海大道)",
    "Address": "滨海大道133号附近",
    "type": "购物服务",
    "lng": "110.288",
    "lat": "20.0261",
    "district": "秀英区"
  },
  {
    "name": "顺达螺丝总汇",
    "Address": "海秀快速路与海秀快速路出口交叉口西北50米",
    "type": "购物服务",
    "lng": "110.289",
    "lat": "20.0202",
    "district": "秀英区"
  },
  {
    "name": "三丹便利店",
    "Address": "长流一号路与长滨路交叉口西北100米",
    "type": "购物服务",
    "lng": "110.214",
    "lat": "20.0178",
    "district": "秀英区"
  },
  {
    "name": "星辰电脑",
    "Address": "富康路与丘海大道交叉口东南220米",
    "type": "购物服务",
    "lng": "110.302",
    "lat": "19.9923",
    "district": "秀英区"
  },
  {
    "name": "瑞园二期营销中心",
    "Address": "海秀西路177号",
    "type": "购物服务",
    "lng": "110.292",
    "lat": "20.0194",
    "district": "秀英区"
  },
  {
    "name": "富祥建材五金商行",
    "Address": "海秀西路167号1附近",
    "type": "购物服务",
    "lng": "110.295",
    "lat": "20.0197",
    "district": "秀英区"
  },
  {
    "name": "海南98汽车寄卖店",
    "Address": "南海大道135号第一汽车城",
    "type": "购物服务",
    "lng": "110.299",
    "lat": "20.0027",
    "district": "秀英区"
  },
  {
    "name": "祥和商行",
    "Address": "海秀西路与西站路交叉口东南50米",
    "type": "购物服务",
    "lng": "110.297",
    "lat": "20.019",
    "district": "秀英区"
  },
  {
    "name": "国珍汗蒸",
    "Address": "长生路118号2层",
    "type": "生活服务",
    "lng": "110.209",
    "lat": "20.0178",
    "district": "秀英区"
  },
  {
    "name": "丽晶养生会所",
    "Address": "向荣路与秀英大道交叉口南150米",
    "type": "生活服务",
    "lng": "110.287",
    "lat": "20.0054",
    "district": "秀英区"
  },
  {
    "name": "惠兴电脑销售维修",
    "Address": "美俗路17号",
    "type": "生活服务",
    "lng": "110.285",
    "lat": "20.0107",
    "district": "秀英区"
  },
  {
    "name": "海口港客运站售票处",
    "Address": "滨海大道",
    "type": "生活服务",
    "lng": "110.292",
    "lat": "20.0268",
    "district": "秀英区"
  },
  {
    "name": "聚水苑",
    "Address": "金鼎路金鼎中心商厦",
    "type": "商务住宅",
    "lng": "110.293",
    "lat": "20.0179",
    "district": "秀英区"
  },
  {
    "name": "伊泰天骄停车场(南出口)",
    "Address": "长滨六路与长滨西三街交叉口东南200米",
    "type": "交通设施服务",
    "lng": "110.19",
    "lat": "20.0515",
    "district": "秀英区"
  },
  {
    "name": "停车场(秀华社区卫生服务站东南)",
    "Address": "秀华路12-14号附近",
    "type": "交通设施服务",
    "lng": "110.298",
    "lat": "20.0137",
    "district": "秀英区"
  },
  {
    "name": "铭盛檀香洲停车场",
    "Address": "海秀西路158号铭盛檀",
    "type": "交通设施服务",
    "lng": "110.295",
    "lat": "20.0191",
    "district": "秀英区"
  },
  {
    "name": "十一号码头旅客接送停车场",
    "Address": "港华路与港集路交叉口南150米",
    "type": "交通设施服务",
    "lng": "110.294",
    "lat": "20.0303",
    "district": "秀英区"
  },
  {
    "name": "助你成才辅导中心",
    "Address": "堂善村11",
    "type": "科教文化服务",
    "lng": "110.206",
    "lat": "20.0178",
    "district": "秀英区"
  },
  {
    "name": "海南省卫生学校综合门诊部",
    "Address": "秀华路32号",
    "type": "医疗保健服务",
    "lng": "110.296",
    "lat": "20.0137",
    "district": "秀英区"
  },
  {
    "name": "秀英区农村社会养老保险事业管理处",
    "Address": "秀华路6-1号附近",
    "type": "政府机构及社会团体",
    "lng": "110.299",
    "lat": "20.0141",
    "district": "秀英区"
  },
  {
    "name": "海南金德茂贸易有限公司",
    "Address": "海盛路钢材交易市场南区A403栋",
    "type": "公司企业",
    "lng": "110.23",
    "lat": "20.0133",
    "district": "秀英区"
  },
  {
    "name": "海南海宁经济发展总公司",
    "Address": "秀英港澳工业开发区兴海路19号",
    "type": "公司企业",
    "lng": "110.261",
    "lat": "20.0092",
    "district": "秀英区"
  },
  {
    "name": "江苏华建仓库",
    "Address": "南海大道气象台旁",
    "type": "公司企业",
    "lng": "110.249",
    "lat": "20.0007",
    "district": "秀英区"
  },
  {
    "name": "海和顺实业有限公司",
    "Address": "永兴镇国家高新区狮子岭工业园火炬横路7号",
    "type": "公司企业",
    "lng": "110.275",
    "lat": "19.9466",
    "district": "秀英区"
  },
  {
    "name": "海口新丹空调工程有限公司",
    "Address": "金福路西150米",
    "type": "公司企业",
    "lng": "110.29",
    "lat": "19.9911",
    "district": "秀英区"
  },
  {
    "name": "海南宝龙钢结构制造有限公司",
    "Address": "富康路南50米",
    "type": "公司企业",
    "lng": "110.295",
    "lat": "19.9932",
    "district": "秀英区"
  },
  {
    "name": "雪派制冷海口办事处仓库",
    "Address": "向荣路9号附近",
    "type": "公司企业",
    "lng": "110.279",
    "lat": "20.0079",
    "district": "秀英区"
  },
  {
    "name": "海南中甘云海实业有限公司",
    "Address": "永万路东100米",
    "type": "公司企业",
    "lng": "110.274",
    "lat": "20.0145",
    "district": "秀英区"
  },
  {
    "name": "海南信达汽车部件有限公司",
    "Address": "港澳开发区翠亨路5号",
    "type": "公司企业",
    "lng": "110.266",
    "lat": "20.0126",
    "district": "秀英区"
  },
  {
    "name": "海南东山湖高尔夫球会",
    "Address": "东山镇琼东路168号",
    "type": "体育休闲服务",
    "lng": "110.26",
    "lat": "19.7856",
    "district": "秀英区"
  },
  {
    "name": "好百年渔民新村",
    "Address": "长信路10号柏斯观海台二期",
    "type": "餐饮服务",
    "lng": "110.262",
    "lat": "20.027",
    "district": "秀英区"
  },
  {
    "name": "福和顺美食城",
    "Address": "秀英大道西城一号和马自达中间",
    "type": "餐饮服务",
    "lng": "110.284",
    "lat": "20.0033",
    "district": "秀英区"
  },
  {
    "name": "湘巴楼",
    "Address": "秀英大道53号丽景花园丽晶休闲美食广场",
    "type": "餐饮服务",
    "lng": "110.287",
    "lat": "20.0053",
    "district": "秀英区"
  },
  {
    "name": "重庆小吃",
    "Address": "海秀西路燕琼大厦南50米处",
    "type": "餐饮服务",
    "lng": "110.29",
    "lat": "20.0198",
    "district": "秀英区"
  },
  {
    "name": "优衣库",
    "Address": "海榆中线海口万达广场",
    "type": "购物服务",
    "lng": "110.285",
    "lat": "19.9859",
    "district": "秀英区"
  },
  {
    "name": "英国卡尔沃高级润滑油",
    "Address": "南海大道214号附近",
    "type": "购物服务",
    "lng": "110.275",
    "lat": "20.0013",
    "district": "秀英区"
  },
  {
    "name": "楚喜装饰材料商行",
    "Address": "南海大道西城1号旁边第二铺面",
    "type": "购物服务",
    "lng": "110.286",
    "lat": "20.0027",
    "district": "秀英区"
  },
  {
    "name": "东达鑫水电装饰店",
    "Address": "秀英大道与美俗路交叉口东南50米",
    "type": "购物服务",
    "lng": "110.287",
    "lat": "20.0078",
    "district": "秀英区"
  },
  {
    "name": "永佳窗帘、纱窗(西海岸店)",
    "Address": "和谐路与长信路交叉口东150米",
    "type": "购物服务",
    "lng": "110.26",
    "lat": "20.0287",
    "district": "秀英区"
  },
  {
    "name": "滨西旅馆",
    "Address": "海秀街道滨海西路17号",
    "type": "住宿服务",
    "lng": "110.287",
    "lat": "20.0262",
    "district": "秀英区"
  },
  {
    "name": "禧鸿宾馆",
    "Address": "滨海大道161-8号秀英时代广场B栋",
    "type": "住宿服务",
    "lng": "110.29",
    "lat": "20.0242",
    "district": "秀英区"
  },
  {
    "name": "生活家巴洛克地板",
    "Address": "滨海大道居然之家二期三楼3012",
    "type": "购物服务",
    "lng": "110.29",
    "lat": "20.0261",
    "district": "秀英区"
  },
  {
    "name": "东家花梨",
    "Address": "居然之家三楼3-022",
    "type": "购物服务",
    "lng": "110.29",
    "lat": "20.0261",
    "district": "秀英区"
  },
  {
    "name": "富岛化肥(250乡道)",
    "Address": "250乡道东50米",
    "type": "购物服务",
    "lng": "110.196",
    "lat": "19.8818",
    "district": "秀英区"
  },
  {
    "name": "韩国现代漆长流专买点",
    "Address": "长新路30号附近",
    "type": "购物服务",
    "lng": "110.207",
    "lat": "20.0191",
    "district": "秀英区"
  },
  {
    "name": "鸿利达水利水电机械公司",
    "Address": "金盛达五金区7栋136号",
    "type": "购物服务",
    "lng": "110.295",
    "lat": "19.9599",
    "district": "秀英区"
  },
  {
    "name": "福明记商行",
    "Address": "秀英东方洋18号",
    "type": "购物服务",
    "lng": "110.297",
    "lat": "20.0218",
    "district": "秀英区"
  },
  {
    "name": "犬心犬意宠物店",
    "Address": "万花坊商铺一段9-11",
    "type": "购物服务",
    "lng": "110.296",
    "lat": "20.0066",
    "district": "秀英区"
  },
  {
    "name": "中国福利彩票",
    "Address": "秀新路34号附近",
    "type": "生活服务",
    "lng": "110.29",
    "lat": "20.0096",
    "district": "秀英区"
  },
  {
    "name": "海经院驾校",
    "Address": "秀英大道22号附近",
    "type": "生活服务",
    "lng": "110.287",
    "lat": "20.0141",
    "district": "秀英区"
  },
  {
    "name": "金鼎大厦(金鼎路)",
    "Address": "海秀西路160号",
    "type": "商务住宅",
    "lng": "110.294",
    "lat": "20.019",
    "district": "秀英区"
  },
  {
    "name": "西秀海滩公园停车场",
    "Address": "滨海大道与长秀路交叉口西北200米",
    "type": "交通设施服务",
    "lng": "110.267",
    "lat": "20.0309",
    "district": "秀英区"
  },
  {
    "name": "安亲培训中心",
    "Address": "美林路城市海岸南门102-104",
    "type": "科教文化服务",
    "lng": "110.256",
    "lat": "20.0212",
    "district": "秀英区"
  },
  {
    "name": "养天和大药房(龙卫分店)",
    "Address": "海秀镇新村1队村委会右侧钟齐正一楼铺面",
    "type": "医疗保健服务",
    "lng": "110.288",
    "lat": "20",
    "district": "秀英区"
  },
  {
    "name": "石山镇人民政府",
    "Address": "文明路与解放南街交叉口西北50米",
    "type": "政府机构及社会团体",
    "lng": "110.216",
    "lat": "19.9414",
    "district": "秀英区"
  },
  {
    "name": "永德村委会",
    "Address": "224国道东50米",
    "type": "政府机构及社会团体",
    "lng": "110.274",
    "lat": "19.9004",
    "district": "秀英区"
  },
  {
    "name": "新福幼儿园",
    "Address": "秀英街道海口新村339号",
    "type": "科教文化服务",
    "lng": "110.29",
    "lat": "19.9985",
    "district": "秀英区"
  },
  {
    "name": "三弦印象·家酒店",
    "Address": "西海岸长滨四路9号",
    "type": "住宿服务",
    "lng": "110.197",
    "lat": "20.0503",
    "district": "秀英区"
  },
  {
    "name": "海利源砖厂",
    "Address": "长流镇",
    "type": "公司企业",
    "lng": "110.195",
    "lat": "20.0131",
    "district": "秀英区"
  },
  {
    "name": "海南海神同洲制药有限公司",
    "Address": "药谷二路6号",
    "type": "公司企业",
    "lng": "110.265",
    "lat": "19.9943",
    "district": "秀英区"
  },
  {
    "name": "格科总部",
    "Address": "兴华路与兴民路交叉口东南100米",
    "type": "公司企业",
    "lng": "110.265",
    "lat": "20.0075",
    "district": "秀英区"
  },
  {
    "name": "海南长安国际制药有限公司",
    "Address": "国家高新技术产业开发区a-6",
    "type": "公司企业",
    "lng": "110.27",
    "lat": "20.0112",
    "district": "秀英区"
  },
  {
    "name": "海亚丰集装箱厂",
    "Address": "长流镇永桂路",
    "type": "餐饮服务",
    "lng": "110.219",
    "lat": "20.0109",
    "district": "秀英区"
  },
  {
    "name": "168烧烤大本营",
    "Address": "长滨路西50米",
    "type": "餐饮服务",
    "lng": "110.214",
    "lat": "20.0149",
    "district": "秀英区"
  },
  {
    "name": "我家湘菜馆",
    "Address": "长生路3号",
    "type": "餐饮服务",
    "lng": "110.213",
    "lat": "20.0179",
    "district": "秀英区"
  },
  {
    "name": "韩悦韩式烤肉(秀英万达店)",
    "Address": "海榆中线29号万达广场室内步行街3层3076号",
    "type": "餐饮服务",
    "lng": "110.285",
    "lat": "19.9857",
    "district": "秀英区"
  },
  {
    "name": "万达影城(秀英万达广场店)",
    "Address": "海榆中线29号秀英万达广场4层",
    "type": "体育休闲服务",
    "lng": "110.284",
    "lat": "19.9861",
    "district": "秀英区"
  },
  {
    "name": "雪花多彩扎啤(青年路分店)",
    "Address": "金福路文博府b区2号楼铺面07号房",
    "type": "餐饮服务",
    "lng": "110.291",
    "lat": "19.9939",
    "district": "秀英区"
  },
  {
    "name": "酒点半",
    "Address": "英街道金鼎路阳光巴洛克对面",
    "type": "餐饮服务",
    "lng": "110.291",
    "lat": "20.0053",
    "district": "秀英区"
  },
  {
    "name": "乐意专业烘焙",
    "Address": "秀英大道51-9号附近",
    "type": "餐饮服务",
    "lng": "110.294",
    "lat": "20.0047",
    "district": "秀英区"
  },
  {
    "name": "书场村老人活动中心",
    "Address": "秀英大道东200米",
    "type": "体育休闲服务",
    "lng": "110.29",
    "lat": "20.017",
    "district": "秀英区"
  },
  {
    "name": "玩客电玩",
    "Address": "滨海大道161-8号",
    "type": "体育休闲服务",
    "lng": "110.29",
    "lat": "20.0247",
    "district": "秀英区"
  },
  {
    "name": "源顺连锁批发超市",
    "Address": "丘海一横路华洋公寓",
    "type": "餐饮服务",
    "lng": "110.296",
    "lat": "20.0222",
    "district": "秀英区"
  },
  {
    "name": "麦点蛋糕",
    "Address": "秀英街道港澳大道向荣村260-2号",
    "type": "餐饮服务",
    "lng": "110.268",
    "lat": "20.0085",
    "district": "秀英区"
  },
  {
    "name": "云记烤鸭坊",
    "Address": "向荣路174号附近",
    "type": "餐饮服务",
    "lng": "110.27",
    "lat": "20.0095",
    "district": "秀英区"
  },
  {
    "name": "涛哥粉汤店",
    "Address": "秀华路与美华路交叉口西北150米",
    "type": "餐饮服务",
    "lng": "110.298",
    "lat": "20.014",
    "district": "秀英区"
  },
  {
    "name": "棋乐台球",
    "Address": "永兴镇狮子岭工业区光伏南路嘉禾小区",
    "type": "体育休闲服务",
    "lng": "110.279",
    "lat": "19.937",
    "district": "秀英区"
  },
  {
    "name": "贝琪母婴用品专卖店",
    "Address": "东山镇中山路",
    "type": "购物服务",
    "lng": "110.246",
    "lat": "19.7565",
    "district": "秀英区"
  },
  {
    "name": "海口霞光油漆店",
    "Address": "秀英大道海岛阳光3期11号",
    "type": "购物服务",
    "lng": "110.287",
    "lat": "20.0073",
    "district": "秀英区"
  },
  {
    "name": "佰仟分期指定办理店",
    "Address": "秀英大道115号附近",
    "type": "购物服务",
    "lng": "110.289",
    "lat": "20.0152",
    "district": "秀英区"
  },
  {
    "name": "利群洁具",
    "Address": "225国道南50米",
    "type": "购物服务",
    "lng": "110.204",
    "lat": "20.0172",
    "district": "秀英区"
  },
  {
    "name": "正点文具",
    "Address": "长流镇长流中心小学对面",
    "type": "购物服务",
    "lng": "110.212",
    "lat": "20.018",
    "district": "秀英区"
  },
  {
    "name": "轩逸便利店",
    "Address": "秀英街道扶贫开发区富康路2号",
    "type": "购物服务",
    "lng": "110.296",
    "lat": "19.9936",
    "district": "秀英区"
  },
  {
    "name": "都市丽人(海口市秀英书场卫生站南)",
    "Address": "海秀卫生院旁",
    "type": "购物服务",
    "lng": "110.29",
    "lat": "20.0138",
    "district": "秀英区"
  },
  {
    "name": "建缘不锈钢(海秀西路)",
    "Address": "海秀西路189号",
    "type": "购物服务",
    "lng": "110.29",
    "lat": "20.0202",
    "district": "秀英区"
  },
  {
    "name": "如意烟酒商行",
    "Address": "市秀英区美华路水云天小区8号楼",
    "type": "购物服务",
    "lng": "110.298",
    "lat": "20.0114",
    "district": "秀英区"
  },
  {
    "name": "怡欣商行",
    "Address": "美华路a-19号附近",
    "type": "购物服务",
    "lng": "110.299",
    "lat": "20.0125",
    "district": "秀英区"
  },
  {
    "name": "盛达不锈钢",
    "Address": "长流镇长新路74号",
    "type": "购物服务",
    "lng": "110.205",
    "lat": "20.021",
    "district": "秀英区"
  },
  {
    "name": "正大鸿房地产",
    "Address": "海秀街道西海岸长怡路城市海岸二期116号商铺",
    "type": "生活服务",
    "lng": "110.257",
    "lat": "20.0212",
    "district": "秀英区"
  },
  {
    "name": "海口安信万泉物流有限公司",
    "Address": "富集路5号",
    "type": "生活服务",
    "lng": "110.294",
    "lat": "19.9931",
    "district": "秀英区"
  },
  {
    "name": "火车站家属宿舍",
    "Address": "粤海大道270号附近",
    "type": "商务住宅",
    "lng": "110.171",
    "lat": "20.0397",
    "district": "秀英区"
  },
  {
    "name": "铭盛檀香洲檀和阁",
    "Address": "海秀西路158号",
    "type": "商务住宅",
    "lng": "110.295",
    "lat": "20.0189",
    "district": "秀英区"
  },
  {
    "name": "文风小学",
    "Address": "232乡道东100米",
    "type": "科教文化服务",
    "lng": "110.177",
    "lat": "19.9697",
    "district": "秀英区"
  },
  {
    "name": "童谣幼儿园(文明街)",
    "Address": "石山镇文明路37号",
    "type": "科教文化服务",
    "lng": "110.218",
    "lat": "19.9411",
    "district": "秀英区"
  },
  {
    "name": "通达驾校练车处",
    "Address": "海商路西50米",
    "type": "科教文化服务",
    "lng": "110.284",
    "lat": "20.0146",
    "district": "秀英区"
  },
  {
    "name": "停车场(爱华社区卫生服务站西南)",
    "Address": "丘海一横路与港祥路交叉口西北50米",
    "type": "交通设施服务",
    "lng": "110.291",
    "lat": "20.0223",
    "district": "秀英区"
  },
  {
    "name": "秀英港码头(公交站)",
    "Address": "13路",
    "type": "交通设施服务",
    "lng": "110.293",
    "lat": "20.0348",
    "district": "秀英区"
  },
  {
    "name": "东方·海域阳光国际停车场",
    "Address": "长滨三路2号",
    "type": "交通设施服务",
    "lng": "110.204",
    "lat": "20.0598",
    "district": "秀英区"
  },
  {
    "name": "海南新国宾馆医务室",
    "Address": "滨海西路111号海南新国宾馆",
    "type": "医疗保健服务",
    "lng": "110.223",
    "lat": "20.0565",
    "district": "秀英区"
  },
  {
    "name": "翠玉园小区管理处",
    "Address": "海秀街道和谐路20号",
    "type": "政府机构及社会团体",
    "lng": "110.257",
    "lat": "20.0167",
    "district": "秀英区"
  },
  {
    "name": "海南鲁工建筑装饰",
    "Address": "长滨五路与长滨西一街交叉口南150米",
    "type": "公司企业",
    "lng": "110.194",
    "lat": "20.0561",
    "district": "秀英区"
  },
  {
    "name": "慧眼识金药业(海南)有限公司",
    "Address": "和谐路15号紫园D区1号",
    "type": "公司企业",
    "lng": "110.259",
    "lat": "20.0204",
    "district": "秀英区"
  },
  {
    "name": "海南美亚电缆厂有限公司(岭北一路)",
    "Address": "狮子岭工业园火炬横路10号",
    "type": "公司企业",
    "lng": "110.276",
    "lat": "19.9441",
    "district": "秀英区"
  },
  {
    "name": "海南赛诺实业有限公司(丘海大道)",
    "Address": "丘海大道延长线3-4公里处",
    "type": "公司企业",
    "lng": "110.302",
    "lat": "19.9587",
    "district": "秀英区"
  },
  {
    "name": "海南省水利水电建筑安装公司",
    "Address": "秀英街道秀新路1号",
    "type": "公司企业",
    "lng": "110.291",
    "lat": "20.009",
    "district": "秀英区"
  },
  {
    "name": "海南飞利普药业有限公司",
    "Address": "龙华路海南省人民医院旁",
    "type": "公司企业",
    "lng": "110.294",
    "lat": "20.0122",
    "district": "秀英区"
  },
  {
    "name": "Mina闺蜜主题餐厅",
    "Address": "南和街6",
    "type": "餐饮服务",
    "lng": "110.21",
    "lat": "20.0182",
    "district": "秀英区"
  },
  {
    "name": "正宗杭州小笼包(金福路)",
    "Address": "金福路381号(海口旅游职业学校对面)锦地翰城二期",
    "type": "餐饮服务",
    "lng": "110.291",
    "lat": "19.992",
    "district": "秀英区"
  },
  {
    "name": "合味湘菜馆",
    "Address": "海秀镇丘海大道华信物流城附近",
    "type": "餐饮服务",
    "lng": "110.301",
    "lat": "19.9915",
    "district": "秀英区"
  },
  {
    "name": "地道杭州小笼包",
    "Address": "滨涯湖新村126号",
    "type": "餐饮服务",
    "lng": "110.295",
    "lat": "20.004",
    "district": "秀英区"
  },
  {
    "name": "绿豆酥",
    "Address": "秀英小街秀华路60-1号",
    "type": "餐饮服务",
    "lng": "110.29",
    "lat": "20.0137",
    "district": "秀英区"
  },
  {
    "name": "椰语堂(远大店)",
    "Address": "西海岸长滨西二街海口远大购物中心一层C1-4号",
    "type": "餐饮服务",
    "lng": "110.199",
    "lat": "20.0542",
    "district": "秀英区"
  },
  {
    "name": "春荣食店",
    "Address": "港集路与滨海大道交叉口西150米",
    "type": "餐饮服务",
    "lng": "110.294",
    "lat": "20.0262",
    "district": "秀英区"
  },
  {
    "name": "水怪先生",
    "Address": "滨海大道155号与外运路交叉口可口可乐厂门口",
    "type": "餐饮服务",
    "lng": "110.294",
    "lat": "20.0245",
    "district": "秀英区"
  },
  {
    "name": "湘缘阁土菜馆",
    "Address": "兴海路金美花园一楼6号",
    "type": "餐饮服务",
    "lng": "110.27",
    "lat": "20.0098",
    "district": "秀英区"
  },
  {
    "name": "好孩子专柜",
    "Address": "海榆中线与椰海大道交界处万达广场3号门一层儿童区",
    "type": "购物服务",
    "lng": "110.286",
    "lat": "19.9857",
    "district": "秀英区"
  },
  {
    "name": "海口秀英钦豪五金",
    "Address": "秀英大道74号附近",
    "type": "购物服务",
    "lng": "110.286",
    "lat": "20.0033",
    "district": "秀英区"
  },
  {
    "name": "海口星九金杯专卖店",
    "Address": "南海大道230号海口利星国际汽车城6号馆南6一3铺面(员工食堂旁)",
    "type": "购物服务",
    "lng": "110.284",
    "lat": "20.0019",
    "district": "秀英区"
  },
  {
    "name": "多乐士",
    "Address": "海港路10-9号",
    "type": "购物服务",
    "lng": "110.282",
    "lat": "20.0197",
    "district": "秀英区"
  },
  {
    "name": "格力(丘海一横路)",
    "Address": "海港路福隆广场A栋首层",
    "type": "购物服务",
    "lng": "110.289",
    "lat": "20.0225",
    "district": "秀英区"
  },
  {
    "name": "江湖水电五金商行",
    "Address": "秀英街道长流镇长滨路永桂村345号",
    "type": "购物服务",
    "lng": "110.215",
    "lat": "20.0059",
    "district": "秀英区"
  },
  {
    "name": "德高防水",
    "Address": "长滨路东50米",
    "type": "购物服务",
    "lng": "110.215",
    "lat": "20.0062",
    "district": "秀英区"
  },
  {
    "name": "万利手动电动卷闸门",
    "Address": "永兴镇中线高速路口前100米",
    "type": "购物服务",
    "lng": "110.275",
    "lat": "19.9135",
    "district": "秀英区"
  },
  {
    "name": "翡翠玉器批发",
    "Address": "秀华路5-50号附近",
    "type": "购物服务",
    "lng": "110.298",
    "lat": "20.0128",
    "district": "秀英区"
  },
  {
    "name": "海南物流信息网",
    "Address": "丘海大道与邱浚路交叉口西北150米",
    "type": "生活服务",
    "lng": "110.3",
    "lat": "19.9972",
    "district": "秀英区"
  },
  {
    "name": "雅萱女子美容会所",
    "Address": "秀英大道21号福光粉汤店三楼",
    "type": "生活服务",
    "lng": "110.287",
    "lat": "20.014",
    "district": "秀英区"
  },
  {
    "name": "瑾致美容工作室",
    "Address": "长彤路西海岸高尔夫温泉别墅A区天龙苑2栋802房",
    "type": "生活服务",
    "lng": "110.242",
    "lat": "20.038",
    "district": "秀英区"
  },
  {
    "name": "龙墅湾",
    "Address": "和谐路6号",
    "type": "商务住宅",
    "lng": "110.257",
    "lat": "20.0306",
    "district": "秀英区"
  },
  {
    "name": "观海台壹号二期商业",
    "Address": "蓝城大道与长信路交叉口南100米",
    "type": "商务住宅",
    "lng": "110.262",
    "lat": "20.027",
    "district": "秀英区"
  },
  {
    "name": "西秀镇(公交站)",
    "Address": "55路;澄迈55路",
    "type": "交通设施服务",
    "lng": "110.177",
    "lat": "20.0103",
    "district": "秀英区"
  },
  {
    "name": "五源河幼儿园",
    "Address": "长滨六路与长滨西一街交叉口",
    "type": "科教文化服务",
    "lng": "110.191",
    "lat": "20.057",
    "district": "秀英区"
  },
  {
    "name": "长流站(北出站口)",
    "Address": "东环铁路长流站",
    "type": "交通设施服务",
    "lng": "110.213",
    "lat": "19.9973",
    "district": "秀英区"
  },
  {
    "name": "永秀花园(公交站)",
    "Address": "30路;74路;92路",
    "type": "交通设施服务",
    "lng": "110.215",
    "lat": "20.0058",
    "district": "秀英区"
  },
  {
    "name": "新华教育集团(海南新东方烹饪学校校区)",
    "Address": "港澳大道兴业路19号",
    "type": "科教文化服务",
    "lng": "110.259",
    "lat": "20.0127",
    "district": "秀英区"
  },
  {
    "name": "农垦医院(公交站)",
    "Address": "22路;23路;26路",
    "type": "交通设施服务",
    "lng": "110.306",
    "lat": "19.9878",
    "district": "秀英区"
  },
  {
    "name": "停车场(出入口)",
    "Address": "镇海路与长香路交叉口西100米",
    "type": "交通设施服务",
    "lng": "110.205",
    "lat": "20.063",
    "district": "秀英区"
  },
  {
    "name": "海口市秀英区海秀镇永庄卫生室",
    "Address": "药谷三路南200米",
    "type": "医疗保健服务",
    "lng": "110.263",
    "lat": "19.9904",
    "district": "秀英区"
  },
  {
    "name": "海口岭北花卉种植专业合作社",
    "Address": "155县道东50米",
    "type": "公司企业",
    "lng": "110.264",
    "lat": "19.7797",
    "district": "秀英区"
  },
  {
    "name": "椰树集团有限公司(海盛路辅路)",
    "Address": "海盛路111号",
    "type": "公司企业",
    "lng": "110.253",
    "lat": "20.0153",
    "district": "秀英区"
  },
  {
    "name": "椰树矿泉水仓库",
    "Address": "港澳开发区港澳大道兴海路19号",
    "type": "公司企业",
    "lng": "110.26",
    "lat": "20.0086",
    "district": "秀英区"
  },
  {
    "name": "海宇真空机制瓦",
    "Address": "224国道东50米",
    "type": "公司企业",
    "lng": "110.278",
    "lat": "19.9749",
    "district": "秀英区"
  },
  {
    "name": "元征公司海南办事处",
    "Address": "南海大道250号豪门盛享汽配市场D8-D9号",
    "type": "公司企业",
    "lng": "110.275",
    "lat": "20.0009",
    "district": "秀英区"
  },
  {
    "name": "怛安装卸有限公司",
    "Address": "滨海大道96号秀英港海",
    "type": "公司企业",
    "lng": "110.292",
    "lat": "20.0254",
    "district": "秀英区"
  },
  {
    "name": "潮成庖丁解牛火锅(万达广场店)",
    "Address": "海榆中线29号万达广场3楼(2号门)",
    "type": "餐饮服务",
    "lng": "110.285",
    "lat": "19.986",
    "district": "秀英区"
  },
  {
    "name": "顺意饭店",
    "Address": "富康路24号对面",
    "type": "餐饮服务",
    "lng": "110.293",
    "lat": "19.9933",
    "district": "秀英区"
  },
  {
    "name": "湖南湘味家常菜",
    "Address": "224国道15号附近",
    "type": "餐饮服务",
    "lng": "110.286",
    "lat": "19.9983",
    "district": "秀英区"
  },
  {
    "name": "巧手味湘菜海鲜坊(新店)",
    "Address": "丘海大道118号",
    "type": "餐饮服务",
    "lng": "110.3",
    "lat": "19.9976",
    "district": "秀英区"
  },
  {
    "name": "徐州饭店(丘海大道)",
    "Address": "丘海大道110号附近",
    "type": "餐饮服务",
    "lng": "110.301",
    "lat": "19.9985",
    "district": "秀英区"
  },
  {
    "name": "澄茂槟榔鹅汤店",
    "Address": "美华路夜市一条街一路公交总站对面8号楼",
    "type": "餐饮服务",
    "lng": "110.298",
    "lat": "20.0116",
    "district": "秀英区"
  },
  {
    "name": "烟酒类饮料类小食品",
    "Address": "美华路",
    "type": "餐饮服务",
    "lng": "110.299",
    "lat": "20.0119",
    "district": "秀英区"
  },
  {
    "name": "德记海鲜粥",
    "Address": "海交路与海盛路交叉口东南100米",
    "type": "餐饮服务",
    "lng": "110.276",
    "lat": "20.0179",
    "district": "秀英区"
  },
  {
    "name": "河南饭店",
    "Address": "丘海一横路与东方洋路交叉口西150米",
    "type": "餐饮服务",
    "lng": "110.296",
    "lat": "20.0215",
    "district": "秀英区"
  },
  {
    "name": "杨氏农家饭店",
    "Address": "东方洋路16号",
    "type": "餐饮服务",
    "lng": "110.297",
    "lat": "20.0218",
    "district": "秀英区"
  },
  {
    "name": "小罗便利店",
    "Address": "秀英街道海榆中线老车管所斜对面",
    "type": "购物服务",
    "lng": "110.286",
    "lat": "19.9923",
    "district": "秀英区"
  },
  {
    "name": "德高防水",
    "Address": "金福路635号附近",
    "type": "购物服务",
    "lng": "110.291",
    "lat": "19.9931",
    "district": "秀英区"
  },
  {
    "name": "中国联通(秀英新村专营店)",
    "Address": "海秀镇新村中心小学大门右侧第二栋1楼铺面",
    "type": "购物服务",
    "lng": "110.289",
    "lat": "20.0005",
    "district": "秀英区"
  },
  {
    "name": "楠京商务公寓",
    "Address": "秀英大道181号(西海岸商圈)",
    "type": "住宿服务",
    "lng": "110.288",
    "lat": "20.0164",
    "district": "秀英区"
  },
  {
    "name": "精诚门窗装饰工程部",
    "Address": "安康路东50米",
    "type": "购物服务",
    "lng": "110.214",
    "lat": "20.0049",
    "district": "秀英区"
  },
  {
    "name": "祥瑞珠宝",
    "Address": "长康路19号附近",
    "type": "购物服务",
    "lng": "110.208",
    "lat": "20.016",
    "district": "秀英区"
  },
  {
    "name": "家和门窗",
    "Address": "长新路与225国道交叉口西100米",
    "type": "购物服务",
    "lng": "110.206",
    "lat": "20.0173",
    "district": "秀英区"
  },
  {
    "name": "丹阳商行",
    "Address": "金鼎路90-3",
    "type": "购物服务",
    "lng": "110.291",
    "lat": "20.0054",
    "district": "秀英区"
  },
  {
    "name": "BodyForm",
    "Address": "丘海一横路45号附近",
    "type": "购物服务",
    "lng": "110.295",
    "lat": "20.0216",
    "district": "秀英区"
  },
  {
    "name": "小菜篮",
    "Address": "丘海一横路11号",
    "type": "购物服务",
    "lng": "110.297",
    "lat": "20.0215",
    "district": "秀英区"
  },
  {
    "name": "芳花SPA养生会馆",
    "Address": "225国道南50米",
    "type": "生活服务",
    "lng": "110.164",
    "lat": "20.0036",
    "district": "秀英区"
  },
  {
    "name": "海经院驾校",
    "Address": "海秀镇白水塘金福路文博府对面",
    "type": "生活服务",
    "lng": "110.291",
    "lat": "19.9927",
    "district": "秀英区"
  },
  {
    "name": "223物流(富康路)",
    "Address": "富康路81-9号附近",
    "type": "生活服务",
    "lng": "110.29",
    "lat": "19.9937",
    "district": "秀英区"
  },
  {
    "name": "海南鸿辉物流",
    "Address": "丘海大道118号南北通停车场A区9号",
    "type": "生活服务",
    "lng": "110.3",
    "lat": "19.999",
    "district": "秀英区"
  },
  {
    "name": "中国体育彩票",
    "Address": "金福路357号附近",
    "type": "生活服务",
    "lng": "110.291",
    "lat": "19.9978",
    "district": "秀英区"
  },
  {
    "name": "克缇·优质生活馆",
    "Address": "秀英大道海岛阳光二期2楼",
    "type": "生活服务",
    "lng": "110.288",
    "lat": "20.0098",
    "district": "秀英区"
  },
  {
    "name": "速发货运(滨海大道)",
    "Address": "滨海大道131号省木材公司宿舍1楼",
    "type": "生活服务",
    "lng": "110.296",
    "lat": "20.0257",
    "district": "秀英区"
  },
  {
    "name": "星平货运",
    "Address": "长流镇南海大道气象台旁老运入口",
    "type": "生活服务",
    "lng": "110.249",
    "lat": "20.0007",
    "district": "秀英区"
  },
  {
    "name": "停车场(美林路)",
    "Address": "美林路北50米",
    "type": "交通设施服务",
    "lng": "110.261",
    "lat": "20.0214",
    "district": "秀英区"
  },
  {
    "name": "新海村委会",
    "Address": "西秀镇",
    "type": "政府机构及社会团体",
    "lng": "110.171",
    "lat": "20.0558",
    "district": "秀英区"
  },
  {
    "name": "永庄水库管理所",
    "Address": "永庄",
    "type": "政府机构及社会团体",
    "lng": "110.264",
    "lat": "19.9816",
    "district": "秀英区"
  },
  {
    "name": "海口市国资委",
    "Address": "滨海大道157号",
    "type": "政府机构及社会团体",
    "lng": "110.292",
    "lat": "20.0246",
    "district": "秀英区"
  },
  {
    "name": "海口市文化广电出版体育局",
    "Address": "长滨三路9号市政府",
    "type": "政府机构及社会团体",
    "lng": "110.206",
    "lat": "20.0501",
    "district": "秀英区"
  },
  {
    "name": "中小企业孵化中心",
    "Address": "南海大道266号海口国家高新开发区",
    "type": "公司企业",
    "lng": "110.271",
    "lat": "20.0022",
    "district": "秀英区"
  },
  {
    "name": "屯昌雄记黑猪骨汤店",
    "Address": "富康路与金福路交叉口东南50米",
    "type": "餐饮服务",
    "lng": "110.291",
    "lat": "19.9932",
    "district": "秀英区"
  },
  {
    "name": "周记常德肠子馆",
    "Address": "海秀街道海秀中秀英49号",
    "type": "餐饮服务",
    "lng": "110.286",
    "lat": "20.0013",
    "district": "秀英区"
  },
  {
    "name": "比克利",
    "Address": "秀新路64号",
    "type": "餐饮服务",
    "lng": "110.289",
    "lat": "20.0095",
    "district": "秀英区"
  },
  {
    "name": "东北风味餐馆",
    "Address": "丘海一横路与港祥路交叉口东北50米",
    "type": "餐饮服务",
    "lng": "110.291",
    "lat": "20.0221",
    "district": "秀英区"
  },
  {
    "name": "8099南北烧烤",
    "Address": "秀华路与美华路交叉口东南50米",
    "type": "餐饮服务",
    "lng": "110.299",
    "lat": "20.0134",
    "district": "秀英区"
  },
  {
    "name": "南方华天酒店",
    "Address": "光伏南路3号",
    "type": "住宿服务",
    "lng": "110.271",
    "lat": "19.9435",
    "district": "秀英区"
  },
  {
    "name": "益万家超市",
    "Address": "海秀镇儒益村87号",
    "type": "购物服务",
    "lng": "110.285",
    "lat": "19.9815",
    "district": "秀英区"
  },
  {
    "name": "全通手机店",
    "Address": "秀英大道107号",
    "type": "购物服务",
    "lng": "110.288",
    "lat": "20.0129",
    "district": "秀英区"
  },
  {
    "name": "头等舱沙发",
    "Address": "滨海大道居然之家海口店二楼",
    "type": "购物服务",
    "lng": "110.29",
    "lat": "20.0261",
    "district": "秀英区"
  },
  {
    "name": "鑫美购物广场",
    "Address": "长流镇长康路35号(叶纯童房屋)",
    "type": "购物服务",
    "lng": "110.208",
    "lat": "20.0143",
    "district": "秀英区"
  },
  {
    "name": "OPPO",
    "Address": "秀华路中国银行对面25号",
    "type": "购物服务",
    "lng": "110.292",
    "lat": "20.0133",
    "district": "秀英区"
  },
  {
    "name": "真维斯专柜",
    "Address": "秀华路48号金海大厦1楼乐周时尚馆",
    "type": "购物服务",
    "lng": "110.292",
    "lat": "20.014",
    "district": "秀英区"
  },
  {
    "name": "金鼎中心",
    "Address": "海秀大道160号",
    "type": "商务住宅",
    "lng": "110.293",
    "lat": "20.0184",
    "district": "秀英区"
  },
  {
    "name": "三鲸机电",
    "Address": "海秀快速路入口与海秀西路交叉口西北50米",
    "type": "购物服务",
    "lng": "110.299",
    "lat": "20.0198",
    "district": "秀英区"
  },
  {
    "name": "康伟眼镜",
    "Address": "秀英街道秀华路32-22号",
    "type": "购物服务",
    "lng": "110.294",
    "lat": "20.0137",
    "district": "秀英区"
  },
  {
    "name": "海口秀英鸿鑫泰五金店(秀英分店)",
    "Address": "秀华路18-1号",
    "type": "购物服务",
    "lng": "110.298",
    "lat": "20.0137",
    "district": "秀英区"
  },
  {
    "name": "海口永力电气有限公司",
    "Address": "海秀西路金银小区6号",
    "type": "购物服务",
    "lng": "110.299",
    "lat": "20.0197",
    "district": "秀英区"
  },
  {
    "name": "云壹首将庙",
    "Address": "225国道西200米",
    "type": "风景名胜",
    "lng": "110.16",
    "lat": "20.004",
    "district": "秀英区"
  },
  {
    "name": "涛·锦发型",
    "Address": "水头上村轩宇宾馆斜对面",
    "type": "生活服务",
    "lng": "110.302",
    "lat": "19.9923",
    "district": "秀英区"
  },
  {
    "name": "海南杰马变频器维修店",
    "Address": "老向荣路3-13号",
    "type": "生活服务",
    "lng": "110.285",
    "lat": "20.0068",
    "district": "秀英区"
  },
  {
    "name": "启之航广告招牌",
    "Address": "秀英大道2号",
    "type": "生活服务",
    "lng": "110.288",
    "lat": "20.0184",
    "district": "秀英区"
  },
  {
    "name": "天能电池",
    "Address": "书场街2-8号",
    "type": "生活服务",
    "lng": "110.286",
    "lat": "20.0187",
    "district": "秀英区"
  },
  {
    "name": "名剪Q佬",
    "Address": "海秀西路17号",
    "type": "生活服务",
    "lng": "110.294",
    "lat": "20.0182",
    "district": "秀英区"
  },
  {
    "name": "鸿运昌建筑器材租赁部",
    "Address": "海盛路22号",
    "type": "生活服务",
    "lng": "110.281",
    "lat": "20.0196",
    "district": "秀英区"
  },
  {
    "name": "中国福利彩票中国体育彩票",
    "Address": "海港路17号附近",
    "type": "生活服务",
    "lng": "110.289",
    "lat": "20.0236",
    "district": "秀英区"
  },
  {
    "name": "海南省邮政速递包裹局投递班",
    "Address": "丘海大道与省三建路交叉口西北150米",
    "type": "生活服务",
    "lng": "110.3",
    "lat": "20.0249",
    "district": "秀英区"
  },
  {
    "name": "联达物流",
    "Address": "丘海大道华信物流C栋15-16号",
    "type": "生活服务",
    "lng": "110.297",
    "lat": "19.9915",
    "district": "秀英区"
  },
  {
    "name": "晨晖·西海岸广场",
    "Address": "长滨五路2号",
    "type": "商务住宅",
    "lng": "110.192",
    "lat": "20.0583",
    "district": "秀英区"
  },
  {
    "name": "锦城2期",
    "Address": "白水塘路15号",
    "type": "商务住宅",
    "lng": "110.292",
    "lat": "19.9877",
    "district": "秀英区"
  },
  {
    "name": "海岛·中丝园",
    "Address": "长滨三路和长滨东二街交叉口往西200米",
    "type": "商务住宅",
    "lng": "110.202",
    "lat": "20.0547",
    "district": "秀英区"
  },
  {
    "name": "贵族游艇(公交站)",
    "Address": "28路;28路B线;35路;37路;40路;57路;澄迈35路",
    "type": "交通设施服务",
    "lng": "110.238",
    "lat": "20.0457",
    "district": "秀英区"
  },
  {
    "name": "省医院留医部(公交站)",
    "Address": "1路;2路;3路;17路;31路;39路;55路;62路;208路;209路",
    "type": "交通设施服务",
    "lng": "110.295",
    "lat": "20.0135",
    "district": "秀英区"
  },
  {
    "name": "华苑盛元酒店停车场",
    "Address": "秀英大道11号附近",
    "type": "交通设施服务",
    "lng": "110.288",
    "lat": "20.0167",
    "district": "秀英区"
  },
  {
    "name": "海南省人民医院急诊科",
    "Address": "秀华路19号",
    "type": "医疗保健服务",
    "lng": "110.294",
    "lat": "20.013",
    "district": "秀英区"
  },
  {
    "name": "秀英区石山食品药品监督管理所",
    "Address": "振兴街28号附近",
    "type": "政府机构及社会团体",
    "lng": "110.217",
    "lat": "19.9403",
    "district": "秀英区"
  },
  {
    "name": "海秀派出所市一中高中部警务室",
    "Address": "白水塘路北50米",
    "type": "政府机构及社会团体",
    "lng": "110.295",
    "lat": "19.9884",
    "district": "秀英区"
  },
  {
    "name": "海南锦盛物业服务有限公司",
    "Address": "海盛陆229号海南钢材交易市场办公楼",
    "type": "公司企业",
    "lng": "110.23",
    "lat": "20.0137",
    "district": "秀英区"
  },
  {
    "name": "海南龙康机电设备有限公司",
    "Address": "海盛路117号",
    "type": "公司企业",
    "lng": "110.251",
    "lat": "20.0152",
    "district": "秀英区"
  },
  {
    "name": "海南创成家具有限公司",
    "Address": "安康路东100米",
    "type": "公司企业",
    "lng": "110.213",
    "lat": "20.0074",
    "district": "秀英区"
  },
  {
    "name": "海南金博桥架",
    "Address": "丘海大道金盛达建材城五金区7栋101号",
    "type": "公司企业",
    "lng": "110.295",
    "lat": "19.96",
    "district": "秀英区"
  },
  {
    "name": "海口联合展发贸易有限公司",
    "Address": "海榆中线3公里处博港物流市场速韵达路口直进100米",
    "type": "公司企业",
    "lng": "110.286",
    "lat": "19.9918",
    "district": "秀英区"
  },
  {
    "name": "威立雅自来水厂",
    "Address": "秀英小街(海口市十四中学旁)",
    "type": "公司企业",
    "lng": "110.291",
    "lat": "20.0131",
    "district": "秀英区"
  },
  {
    "name": "海南农垦第二物资供销公司",
    "Address": "海盛路24号",
    "type": "公司企业",
    "lng": "110.278",
    "lat": "20.0191",
    "district": "秀英区"
  },
  {
    "name": "中国石化海南石油分公司",
    "Address": "滨海大道163号",
    "type": "公司企业",
    "lng": "110.272",
    "lat": "20.0285",
    "district": "秀英区"
  },
  {
    "name": "洁盈洗衣厂",
    "Address": "港澳开发区翠亨路4号",
    "type": "公司企业",
    "lng": "110.266",
    "lat": "20.0119",
    "district": "秀英区"
  },
  {
    "name": "东山茶饭店",
    "Address": "海秀街道海秀镇海口新村金福路金福幼儿园后",
    "type": "餐饮服务",
    "lng": "110.291",
    "lat": "19.9985",
    "district": "秀英区"
  },
  {
    "name": "馨语",
    "Address": "美俗路与美华路交叉口西南50米",
    "type": "餐饮服务",
    "lng": "110.296",
    "lat": "20.0074",
    "district": "秀英区"
  },
  {
    "name": "刘老大麻辣香锅",
    "Address": "秀英大道11号(魅力100楼下)",
    "type": "餐饮服务",
    "lng": "110.288",
    "lat": "20.0169",
    "district": "秀英区"
  },
  {
    "name": "富贵饭店(海秀快速路)",
    "Address": "海盛路16号附近",
    "type": "餐饮服务",
    "lng": "110.283",
    "lat": "20.019",
    "district": "秀英区"
  },
  {
    "name": "高记云南过桥米线(中南大学湘雅海口医院分院北)",
    "Address": "海港路183号",
    "type": "餐饮服务",
    "lng": "110.29",
    "lat": "20.0245",
    "district": "秀英区"
  },
  {
    "name": "星巴克咖啡",
    "Address": "秀英街道万达广场2号门",
    "type": "餐饮服务",
    "lng": "110.286",
    "lat": "19.9857",
    "district": "秀英区"
  },
  {
    "name": "亦芮1967店",
    "Address": "海秀镇白水塘路11号万达广场",
    "type": "购物服务",
    "lng": "110.286",
    "lat": "19.9857",
    "district": "秀英区"
  },
  {
    "name": "巧旺门窗",
    "Address": "金福路C-4号附近",
    "type": "购物服务",
    "lng": "110.291",
    "lat": "19.9923",
    "district": "秀英区"
  },
  {
    "name": "金之福旅租",
    "Address": "金福路100号附近",
    "type": "住宿服务",
    "lng": "110.291",
    "lat": "19.9989",
    "district": "秀英区"
  },
  {
    "name": "欧雅家私(秀新社区卫生服务站北)",
    "Address": "秀英大道53号丽晶花园北侧",
    "type": "购物服务",
    "lng": "110.287",
    "lat": "20.0052",
    "district": "秀英区"
  },
  {
    "name": "万家乐万和华帝能率林内热水器(6s海口售后店)",
    "Address": "秀英大道33号附近",
    "type": "购物服务",
    "lng": "110.288",
    "lat": "20.0103",
    "district": "秀英区"
  },
  {
    "name": "稻草人",
    "Address": "秀华路与秀英大道交叉口东北150米",
    "type": "购物服务",
    "lng": "110.288",
    "lat": "20.0144",
    "district": "秀英区"
  },
  {
    "name": "燕军不锈钢电焊加工部",
    "Address": "225国道南50米",
    "type": "购物服务",
    "lng": "110.201",
    "lat": "20.0167",
    "district": "秀英区"
  },
  {
    "name": "风帆蓄电池",
    "Address": "金鼎路3-4",
    "type": "购物服务",
    "lng": "110.294",
    "lat": "20.0171",
    "district": "秀英区"
  },
  {
    "name": "娱乐休闲放松",
    "Address": "假日海滩",
    "type": "生活服务",
    "lng": "110.245",
    "lat": "20.0415",
    "district": "秀英区"
  },
  {
    "name": "宝秀节水灌溉",
    "Address": "白水塘路与金福路交叉口南100米",
    "type": "生活服务",
    "lng": "110.291",
    "lat": "19.9884",
    "district": "秀英区"
  },
  {
    "name": "魅力精剪形象设计室",
    "Address": "富康路22-8号附近",
    "type": "生活服务",
    "lng": "110.291",
    "lat": "19.9932",
    "district": "秀英区"
  },
  {
    "name": "正凯律师事务所",
    "Address": "丘海大道58号万花坊K-2B",
    "type": "生活服务",
    "lng": "110.299",
    "lat": "20.007",
    "district": "秀英区"
  },
  {
    "name": "品尚坊品质形象专家",
    "Address": "秀英大道威特集团正对面21号铺面",
    "type": "生活服务",
    "lng": "110.288",
    "lat": "20.0151",
    "district": "秀英区"
  },
  {
    "name": "华欣美容美发(丘海一横路)",
    "Address": "丘海一横路与东方洋路交叉口西50米",
    "type": "生活服务",
    "lng": "110.297",
    "lat": "20.0218",
    "district": "秀英区"
  },
  {
    "name": "凤凰明珠",
    "Address": "美俗路5号",
    "type": "商务住宅",
    "lng": "110.296",
    "lat": "20.0084",
    "district": "秀英区"
  },
  {
    "name": "华秀大厦",
    "Address": "滨海大道129-1号",
    "type": "商务住宅",
    "lng": "110.298",
    "lat": "20.0263",
    "district": "秀英区"
  },
  {
    "name": "海榆西线路口(公交站)",
    "Address": "57路",
    "type": "交通设施服务",
    "lng": "110.18",
    "lat": "20.0572",
    "district": "秀英区"
  },
  {
    "name": "商贸技工学校",
    "Address": "书场街与海商路交叉口西北100米",
    "type": "科教文化服务",
    "lng": "110.287",
    "lat": "20.0164",
    "district": "秀英区"
  },
  {
    "name": "海口同创德利食品有限公司",
    "Address": "长流镇永桂开发区海力路22号",
    "type": "公司企业",
    "lng": "110.221",
    "lat": "20.0105",
    "district": "秀英区"
  },
  {
    "name": "拾味馆仓库",
    "Address": "港澳开发区翠竹路1号舒普生物科技3楼",
    "type": "公司企业",
    "lng": "110.26",
    "lat": "20.0161",
    "district": "秀英区"
  },
  {
    "name": "民河木材厂",
    "Address": "南海大道往西省气象台左侧",
    "type": "公司企业",
    "lng": "110.249",
    "lat": "20.0007",
    "district": "秀英区"
  },
  {
    "name": "为海新材有限公司",
    "Address": "长流镇椰海大道",
    "type": "公司企业",
    "lng": "110.212",
    "lat": "19.9765",
    "district": "秀英区"
  },
  {
    "name": "海南力拓远工程机械有限公司",
    "Address": "椰海大道附近",
    "type": "公司企业",
    "lng": "110.285",
    "lat": "19.9829",
    "district": "秀英区"
  },
  {
    "name": "武汉华业节能环保科技有限公司",
    "Address": "向荣路2号西城秀舍",
    "type": "公司企业",
    "lng": "110.287",
    "lat": "20.0062",
    "district": "秀英区"
  },
  {
    "name": "海南会通会议会展服务有限公司",
    "Address": "南海大道西21号香槟花园酒店大厅",
    "type": "公司企业",
    "lng": "110.291",
    "lat": "20.0029",
    "district": "秀英区"
  },
  {
    "name": "华成公司",
    "Address": "海秀路152号",
    "type": "公司企业",
    "lng": "110.297",
    "lat": "20.019",
    "district": "秀英区"
  },
  {
    "name": "海南辉邦电力工程有限公司",
    "Address": "滨海大道附近",
    "type": "公司企业",
    "lng": "110.267",
    "lat": "20.0291",
    "district": "秀英区"
  },
  {
    "name": "后安粉汤粥",
    "Address": "秀新路26号附近",
    "type": "餐饮服务",
    "lng": "110.291",
    "lat": "20.0094",
    "district": "秀英区"
  },
  {
    "name": "各路来",
    "Address": "秀华路福记南洋批发城对面",
    "type": "餐饮服务",
    "lng": "110.298",
    "lat": "20.0136",
    "district": "秀英区"
  },
  {
    "name": "隆吉食店",
    "Address": "秀英街道秀华路5号福记南洋批发城",
    "type": "餐饮服务",
    "lng": "110.298",
    "lat": "20.013",
    "district": "秀英区"
  },
  {
    "name": "回家吃面",
    "Address": "长滨四路海岸塞拉维商业街2层",
    "type": "餐饮服务",
    "lng": "110.195",
    "lat": "20.0561",
    "district": "秀英区"
  },
  {
    "name": "常德肠子馆(海秀西路)",
    "Address": "海秀路183号",
    "type": "餐饮服务",
    "lng": "110.29",
    "lat": "20.0202",
    "district": "秀英区"
  },
  {
    "name": "千里烧烤",
    "Address": "金鼎路金鼎大厦一楼(汇益果园旁边)",
    "type": "餐饮服务",
    "lng": "110.294",
    "lat": "20.019",
    "district": "秀英区"
  },
  {
    "name": "福建沙县正宗特色小吃",
    "Address": "美华路第8号附近",
    "type": "餐饮服务",
    "lng": "110.299",
    "lat": "20.0127",
    "district": "秀英区"
  },
  {
    "name": "四季凉茶",
    "Address": "秀华路与美华路交叉口西北200米",
    "type": "餐饮服务",
    "lng": "110.298",
    "lat": "20.0148",
    "district": "秀英区"
  },
  {
    "name": "多任门窗工程部",
    "Address": "224国道附近",
    "type": "购物服务",
    "lng": "110.272",
    "lat": "19.8993",
    "district": "秀英区"
  },
  {
    "name": "豪友陶瓷",
    "Address": "海秀镇海榆中线169号金崇物流城(华星饲料厂168号旁边)路口进来直走B区8栋",
    "type": "购物服务",
    "lng": "110.276",
    "lat": "19.9726",
    "district": "秀英区"
  },
  {
    "name": "鳄鱼恤店",
    "Address": "海秀镇海榆中线29号万达广场室内步行街1层1038号商铺",
    "type": "购物服务",
    "lng": "110.286",
    "lat": "19.9857",
    "district": "秀英区"
  },
  {
    "name": "百源超市(港澳店)",
    "Address": "向荣路与科技大道交汇处",
    "type": "购物服务",
    "lng": "110.268",
    "lat": "20.0065",
    "district": "秀英区"
  },
  {
    "name": "昌吉商行",
    "Address": "向荣村168号",
    "type": "购物服务",
    "lng": "110.27",
    "lat": "20.0074",
    "district": "秀英区"
  },
  {
    "name": "优蔬良果",
    "Address": "白水塘路市一中对面锦地翰城2期",
    "type": "购物服务",
    "lng": "110.292",
    "lat": "19.9883",
    "district": "秀英区"
  },
  {
    "name": "顺发门窗装饰工程部",
    "Address": "向荣路北50米",
    "type": "购物服务",
    "lng": "110.284",
    "lat": "20.0084",
    "district": "秀英区"
  },
  {
    "name": "广州天花吊顶",
    "Address": "秀英街道秀英大道52号(秀英小街对面)",
    "type": "购物服务",
    "lng": "110.287",
    "lat": "20.0135",
    "district": "秀英区"
  },
  {
    "name": "女人心",
    "Address": "秀华路48乐周时尚管一楼",
    "type": "购物服务",
    "lng": "110.288",
    "lat": "20.0138",
    "district": "秀英区"
  },
  {
    "name": "石山花梨坊",
    "Address": "142县道与235乡道交叉口西北50米",
    "type": "购物服务",
    "lng": "110.23",
    "lat": "19.9341",
    "district": "秀英区"
  },
  {
    "name": "晖锋商行",
    "Address": "长流镇长康路",
    "type": "购物服务",
    "lng": "110.208",
    "lat": "20.0139",
    "district": "秀英区"
  },
  {
    "name": "同福小卖部",
    "Address": "长流镇",
    "type": "购物服务",
    "lng": "110.206",
    "lat": "20.0173",
    "district": "秀英区"
  },
  {
    "name": "年丰门窗制作部",
    "Address": "长滨五路伊泰天骄13号",
    "type": "购物服务",
    "lng": "110.191",
    "lat": "20.0513",
    "district": "秀英区"
  },
  {
    "name": "香蕉批发店",
    "Address": "金鼎南路烧烤园旁",
    "type": "购物服务",
    "lng": "110.291",
    "lat": "20.0082",
    "district": "秀英区"
  },
  {
    "name": "中国移动手机专卖店(聚宝贝店)",
    "Address": "海秀西路178号",
    "type": "购物服务",
    "lng": "110.29",
    "lat": "20.0197",
    "district": "秀英区"
  },
  {
    "name": "统一电池(新友发专卖店)",
    "Address": "美俗路与美华路交叉口东南50米",
    "type": "购物服务",
    "lng": "110.297",
    "lat": "20.0071",
    "district": "秀英区"
  },
  {
    "name": "混凝土搅拌车及泵车配件服务",
    "Address": "长滨路",
    "type": "生活服务",
    "lng": "110.215",
    "lat": "20.0137",
    "district": "秀英区"
  },
  {
    "name": "超威电池电动车维修店",
    "Address": "秀英街道秀英大道正对面",
    "type": "生活服务",
    "lng": "110.287",
    "lat": "20.0092",
    "district": "秀英区"
  },
  {
    "name": "五源河公寓A区",
    "Address": "长滨六路6",
    "type": "商务住宅",
    "lng": "110.188",
    "lat": "20.0538",
    "district": "秀英区"
  },
  {
    "name": "瀚渝投资顾问有限公司",
    "Address": "滨海大道129-1号华秀大厦cd栋",
    "type": "金融保险服务",
    "lng": "110.299",
    "lat": "20.0264",
    "district": "秀英区"
  },
  {
    "name": "东智庄园幼儿园",
    "Address": "港澳大道25号b座",
    "type": "科教文化服务",
    "lng": "110.263",
    "lat": "20.009",
    "district": "秀英区"
  },
  {
    "name": "星星幼儿园(海口市林业行政执法支队西北)",
    "Address": "秀华路建新街1巷1号",
    "type": "科教文化服务",
    "lng": "110.289",
    "lat": "20.0125",
    "district": "秀英区"
  },
  {
    "name": "川东头站",
    "Address": "海港路23号附近",
    "type": "交通设施服务",
    "lng": "110.289",
    "lat": "20.024",
    "district": "秀英区"
  },
  {
    "name": "华荣大药房(康泰分店)",
    "Address": "琼东路8号附近",
    "type": "医疗保健服务",
    "lng": "110.246",
    "lat": "19.7544",
    "district": "秀英区"
  },
  {
    "name": "卓津蜂业",
    "Address": "永兴镇海榆中线16公里处",
    "type": "医疗保健服务",
    "lng": "110.287",
    "lat": "19.997",
    "district": "秀英区"
  },
  {
    "name": "施茶村委会",
    "Address": "142县道西100米",
    "type": "政府机构及社会团体",
    "lng": "110.248",
    "lat": "19.9384",
    "district": "秀英区"
  },
  {
    "name": "海南丞丰水产有限公司",
    "Address": "永庆大道东路",
    "type": "公司企业",
    "lng": "110.151",
    "lat": "20.021",
    "district": "秀英区"
  },
  {
    "name": "茶物语休闲吧",
    "Address": "224国道明日之星幼儿园旁",
    "type": "餐饮服务",
    "lng": "110.275",
    "lat": "19.9051",
    "district": "秀英区"
  },
  {
    "name": "万宁后安粉(美德街)",
    "Address": "南海大道与美德街交叉口北150米",
    "type": "餐饮服务",
    "lng": "110.297",
    "lat": "20.0032",
    "district": "秀英区"
  },
  {
    "name": "趣味休闲水吧",
    "Address": "秀英大道107号附近",
    "type": "餐饮服务",
    "lng": "110.288",
    "lat": "20.0131",
    "district": "秀英区"
  },
  {
    "name": "闲食间冰吧",
    "Address": "秀英街道秀华社区卫生服务站",
    "type": "餐饮服务",
    "lng": "110.298",
    "lat": "20.014",
    "district": "秀英区"
  },
  {
    "name": "方成篮球馆",
    "Address": "海秀西路29号兵工大酒店对面",
    "type": "体育休闲服务",
    "lng": "110.289",
    "lat": "20.0211",
    "district": "秀英区"
  },
  {
    "name": "海上品牛腩店",
    "Address": "海秀街道梦幻园",
    "type": "餐饮服务",
    "lng": "110.294",
    "lat": "20.0217",
    "district": "秀英区"
  },
  {
    "name": "澄迈肥牛火锅",
    "Address": "兴华路与科技大道交叉口西北50米",
    "type": "餐饮服务",
    "lng": "110.268",
    "lat": "20.0076",
    "district": "秀英区"
  },
  {
    "name": "无名饭馆",
    "Address": "港澳开发区向荣北路金美花园1栋号侨一幼儿园对面",
    "type": "餐饮服务",
    "lng": "110.27",
    "lat": "20.0098",
    "district": "秀英区"
  },
  {
    "name": "顺昌水泥店",
    "Address": "海盛路与长秀路交叉口北100米",
    "type": "购物服务",
    "lng": "110.268",
    "lat": "20.0183",
    "district": "秀英区"
  },
  {
    "name": "志高专柜",
    "Address": "秀英大道商业广场国美电器负一楼",
    "type": "购物服务",
    "lng": "110.287",
    "lat": "20.01",
    "district": "秀英区"
  },
  {
    "name": "旺佳旺超市(观海台店)",
    "Address": "长信路10号观海台壹号21-7铺面",
    "type": "购物服务",
    "lng": "110.263",
    "lat": "20.027",
    "district": "秀英区"
  },
  {
    "name": "金煌天花装饰",
    "Address": "长流一号路与225国道交叉口东150米",
    "type": "购物服务",
    "lng": "110.216",
    "lat": "20.0172",
    "district": "秀英区"
  },
  {
    "name": "美佳盛旅租",
    "Address": "美俗路25号附近",
    "type": "住宿服务",
    "lng": "110.293",
    "lat": "20.0078",
    "district": "秀英区"
  },
  {
    "name": "美亚电缆",
    "Address": "海秀西路175-4号附近",
    "type": "购物服务",
    "lng": "110.292",
    "lat": "20.02",
    "district": "秀英区"
  },
  {
    "name": "骏诚兴五金店",
    "Address": "美华路夜市一条街",
    "type": "购物服务",
    "lng": "110.299",
    "lat": "20.0127",
    "district": "秀英区"
  },
  {
    "name": "刘仑废品回收站",
    "Address": "长天路13号",
    "type": "生活服务",
    "lng": "110.25",
    "lat": "20.0172",
    "district": "秀英区"
  },
  {
    "name": "精剪美发沙龙",
    "Address": "白水塘路64号附近",
    "type": "生活服务",
    "lng": "110.302",
    "lat": "19.9876",
    "district": "秀英区"
  },
  {
    "name": "金达物流",
    "Address": "丘海大道108号附近",
    "type": "生活服务",
    "lng": "110.3",
    "lat": "19.9988",
    "district": "秀英区"
  },
  {
    "name": "邮政便民服务站",
    "Address": "海秀镇海榆中线(秀华小学斜对面)儒益村路口",
    "type": "生活服务",
    "lng": "110.282",
    "lat": "19.9829",
    "district": "秀英区"
  },
  {
    "name": "英华海秀燃气服务部",
    "Address": "海秀西路12号附近",
    "type": "生活服务",
    "lng": "110.292",
    "lat": "20.0195",
    "district": "秀英区"
  },
  {
    "name": "馨雅洗衣生活(海港店)",
    "Address": "海港路28号",
    "type": "生活服务",
    "lng": "110.288",
    "lat": "20.0205",
    "district": "秀英区"
  },
  {
    "name": "宝贝乐婴幼儿游泳馆",
    "Address": "海秀西路160号金鼎中心金鼎商厦一楼14号商铺",
    "type": "生活服务",
    "lng": "110.294",
    "lat": "20.0178",
    "district": "秀英区"
  },
  {
    "name": "足鼎阁(海口港西南)",
    "Address": "秀英时代广场B栋",
    "type": "生活服务",
    "lng": "110.29",
    "lat": "20.0244",
    "district": "秀英区"
  },
  {
    "name": "中国体育彩票",
    "Address": "海港路秀英时代广场b1-20号(肯德基旁)",
    "type": "生活服务",
    "lng": "110.289",
    "lat": "20.0249",
    "district": "秀英区"
  },
  {
    "name": "万花坊铂金公馆",
    "Address": "丘海大道58号凤凰花城",
    "type": "商务住宅",
    "lng": "110.297",
    "lat": "20.0063",
    "district": "秀英区"
  },
  {
    "name": "东山中心小学",
    "Address": "东中路附近",
    "type": "科教文化服务",
    "lng": "110.252",
    "lat": "19.7511",
    "district": "秀英区"
  },
  {
    "name": "天海花园(公交站)",
    "Address": "57路;209路",
    "type": "交通设施服务",
    "lng": "110.255",
    "lat": "20.0277",
    "district": "秀英区"
  },
  {
    "name": "蔚蓝海岸(公交站)",
    "Address": "28路;28路B线;35路;37路;40路;57路;澄迈35路",
    "type": "交通设施服务",
    "lng": "110.234",
    "lat": "20.0487",
    "district": "秀英区"
  },
  {
    "name": "海南新国宾馆会议室",
    "Address": "滨海西路111号海南新国宾馆",
    "type": "科教文化服务",
    "lng": "110.223",
    "lat": "20.0565",
    "district": "秀英区"
  },
  {
    "name": "一中高中部(公交站)",
    "Address": "7路;17路",
    "type": "交通设施服务",
    "lng": "110.294",
    "lat": "19.9883",
    "district": "秀英区"
  },
  {
    "name": "海口培正机动车驾驶培训有限公司",
    "Address": "兴海路向荣村303号",
    "type": "科教文化服务",
    "lng": "110.269",
    "lat": "20.0095",
    "district": "秀英区"
  },
  {
    "name": "西安财经学院海南校区-向阳幼儿园",
    "Address": "秀英街道海盛路9号",
    "type": "科教文化服务",
    "lng": "110.284",
    "lat": "20.0192",
    "district": "秀英区"
  },